[{"name": "Lost", "longitude": "-121.657969", "county": "Pierce County", "latitude": "46.942833", "alt": "5528", "size": "6.5"},
{"name": "Doubtful", "longitude": "-121.047633", "county": "Chelan County", "latitude": "48.473985", "alt": "5390", "size": "29.9"},
{"name": "Monogram", "longitude": "-121.280465", "county": "Skagit County", "latitude": "48.556917", "alt": "4877", "size": "28.7"},
{"name": "Berdeen - Lower", "longitude": "-121.477572", "county": "Whatcom County", "latitude": "48.706932", "alt": "4473", "size": "7.3"},
{"name": "Berdeen - Upper", "longitude": "-121.470262", "county": "Whatcom County", "latitude": "48.725722", "alt": "5067", "size": "9.2"},
{"name": "Dougs", "longitude": "-121.365115", "county": "Whatcom County", "latitude": "48.721943", "alt": "3949", "size": "5.8"},
{"name": "Skymo - Upper", "longitude": "-121.105750", "county": "Whatcom County", "latitude": "48.833582", "alt": "5282", "size": "0.6"},
{"name": "Buckhorn", "longitude": "-123.113284", "county": "Jefferson County", "latitude": "47.837982", "alt": "5113", "size": "1.2"},
{"name": "Deer (1)", "longitude": "-123.823782", "county": "Clallam County", "latitude": "47.926653", "alt": "3525", "size": "8.5"},
{"name": "Long", "longitude": "-123.773447", "county": "Clallam County", "latitude": "47.922571", "alt": "3839", "size": "14.2"},
{"name": "Constance", "longitude": "-123.142260", "county": "Jefferson County", "latitude": "47.750726", "alt": "4669", "size": "10.6"},
{"name": "Airplane", "longitude": "-121.006674", "county": "Chelan County", "latitude": "48.002594", "alt": "5305", "size": "9.4"},
{"name": "Bannock - Middle", "longitude": "-120.972715", "county": "Chelan County", "latitude": "48.260666", "alt": "5929", "size": "6.9"},
{"name": "Bannock - Upper", "longitude": "-120.968671", "county": "Chelan County", "latitude": "48.257043", "alt": "5934", "size": "11.8"},
{"name": "Blue", "longitude": "-120.670502", "county": "Chelan County", "latitude": "48.505900", "alt": "6259", "size": "14.4"},
{"name": "Chain - Lower", "longitude": "-121.019667", "county": "Chelan County", "latitude": "47.691094", "alt": "5632", "size": "3.9"},
{"name": "Chain - Middle", "longitude": "-121.016262", "county": "Chelan County", "latitude": "47.687869", "alt": "5684", "size": "7.4"},
{"name": "Chain - Upper", "longitude": "-121.012644", "county": "Chelan County", "latitude": "47.685949", "alt": "5710", "size": "4.6"},
{"name": "D (Dee)", "longitude": "-120.852153", "county": "Chelan County", "latitude": "47.976458", "alt": "5633", "size": "7.4"},
{"name": "Doelle - Lower", "longitude": "-121.002441", "county": "Chelan County", "latitude": "47.692801", "alt": "5640", "size": "2.9"},
{"name": "Doelle - Upper", "longitude": "-121.006683", "county": "Chelan County", "latitude": "47.692659", "alt": "5787", "size": "8.6"},
{"name": "Dole - Lower", "longitude": "-120.733327", "county": "Chelan County", "latitude": "48.175026", "alt": "6146", "size": "5.0"},
{"name": "Dole - Middle", "longitude": "-120.730024", "county": "Chelan County", "latitude": "48.172195", "alt": "6149", "size": "6.1"},
{"name": "Earle", "longitude": "-120.772158", "county": "Chelan County", "latitude": "47.505274", "alt": "6694", "size": "14.0"},
{"name": "Enchantment No 3 (Leprechaun Lake)", "longitude": "-120.787162", "county": "Chelan County", "latitude": "47.478118", "alt": "6879", "size": "9.2"},
{"name": "Enchantment No 5 (Inspiration Lake)", "longitude": "-120.801247", "county": "Chelan County", "latitude": "47.482400", "alt": "7194", "size": "17.1"},
{"name": "Grace - Lower (1)", "longitude": "-120.939545", "county": "Chelan County", "latitude": "47.692762", "alt": "6271", "size": "5.3"},
{"name": "Grass", "longitude": "-121.076925", "county": "Chelan County", "latitude": "47.685256", "alt": "3580", "size": "1.9"},
{"name": "Jason - Lower", "longitude": "-120.883055", "county": "Chelan County", "latitude": "47.717142", "alt": "5751", "size": "1.7"},
{"name": "Jason - Middle", "longitude": "-120.889565", "county": "Chelan County", "latitude": "47.717211", "alt": "5832", "size": "1.3"},
{"name": "Jason - Upper", "longitude": "-120.890266", "county": "Chelan County", "latitude": "47.714583", "alt": "5838", "size": "6.0"},
{"name": "Julius", "longitude": "-120.876191", "county": "Chelan County", "latitude": "47.736458", "alt": "5194", "size": "13.3"},
{"name": "Klonaqua - Upper", "longitude": "-121.078666", "county": "Chelan County", "latitude": "47.591968", "alt": "5191", "size": "65.2"},
{"name": "Knox", "longitude": "-120.889360", "county": "Chelan County", "latitude": "47.693176", "alt": "6232", "size": "4.8"},
{"name": "Lanham", "longitude": "-121.018761", "county": "Chelan County", "latitude": "47.750364", "alt": "4149", "size": "7.1"},
{"name": "Leonard - Lower", "longitude": "-120.929682", "county": "Chelan County", "latitude": "47.533667", "alt": "6188", "size": "1.9"},
{"name": "Leonard - Upper", "longitude": "-120.924345", "county": "Chelan County", "latitude": "47.528915", "alt": "6909", "size": "1.3"},
{"name": "Lichenwasser", "longitude": "-121.076817", "county": "Chelan County", "latitude": "47.792343", "alt": "4708", "size": "25.1"},
{"name": "Loch Eileen", "longitude": "-120.889511", "county": "Chelan County", "latitude": "47.741462", "alt": "5512", "size": "24.6"},
{"name": "Louis", "longitude": "-121.132616", "county": "Chelan County", "latitude": "47.864192", "alt": "4469", "size": "3.6"},
{"name": "Lyman", "longitude": "-120.910499", "county": "Chelan County", "latitude": "48.193334", "alt": "5603", "size": "73.5"},
{"name": "Mad", "longitude": "-120.653888", "county": "Chelan County", "latitude": "47.934184", "alt": "5820", "size": "7.5"},
{"name": "Mesa", "longitude": "-120.765940", "county": "Chelan County", "latitude": "47.507994", "alt": "6694", "size": "3.6"},
{"name": "Mirror", "longitude": "-120.652251", "county": "Chelan County", "latitude": "48.156633", "alt": "5489", "size": "25.2"},
{"name": "Myrtle", "longitude": "-120.703582", "county": "Chelan County", "latitude": "48.055545", "alt": "3768", "size": "18.0"},
{"name": "Phoebe", "longitude": "-121.105906", "county": "Chelan County", "latitude": "47.600508", "alt": "5218", "size": "11.7"},
{"name": "Phoebe - Lower", "longitude": "-121.105054", "county": "Chelan County", "latitude": "47.603767", "alt": "5151", "size": "2.3"},
{"name": "Rat Creek Pond", "longitude": "-120.767170", "county": "Chelan County", "latitude": "47.514582", "alt": "6261", "size": "0.4"},
{"name": "Ruth", "longitude": "-120.861857", "county": "Chelan County", "latitude": "47.574339", "alt": "6542", "size": "1.2"},
{"name": "Sauer", "longitude": "-121.064701", "county": "Chelan County", "latitude": "47.581794", "alt": "4788", "size": "6.4"},
{"name": "Shield", "longitude": "-120.780756", "county": "Chelan County", "latitude": "47.496981", "alt": "6699", "size": "35.8"},
{"name": "Theseus", "longitude": "-121.031554", "county": "Chelan County", "latitude": "47.848406", "alt": "5064", "size": "27.4"},
{"name": "Toketie", "longitude": "-120.744504", "county": "Chelan County", "latitude": "47.509670", "alt": "6187", "size": "7.8"},
{"name": "Trout", "longitude": "-120.907657", "county": "Chelan County", "latitude": "47.557278", "alt": "4789", "size": "15.8"},
{"name": "Turquoise", "longitude": "-121.050079", "county": "Chelan County", "latitude": "47.616711", "alt": "5469", "size": "19.0"},
{"name": "Lost Lake", "longitude": "-121.404686", "county": "Kittitas County", "latitude": "47.334672", "alt": "3093", "size": "159.5"},
{"name": "Porcupine", "longitude": "-121.340187", "county": "Kittitas County", "latitude": "47.392113", "alt": "4626", "size": "0.2"},
{"name": "Robin - Lower", "longitude": "-121.101851", "county": "Kittitas County", "latitude": "47.583661", "alt": "6168", "size": "8.9"},
{"name": "Robin - Upper", "longitude": "-121.099525", "county": "Kittitas County", "latitude": "47.586466", "alt": "6183", "size": "34.9"},
{"name": "Shoestring", "longitude": "-121.011589", "county": "Kittitas County", "latitude": "47.018892", "alt": "5668", "size": "1.1"},
{"name": "Shovel", "longitude": "-121.202894", "county": "Kittitas County", "latitude": "47.538310", "alt": "4143", "size": "34.4"},
{"name": "Tuck", "longitude": "-121.115890", "county": "Kittitas County", "latitude": "47.588168", "alt": "5273", "size": "16.0"},
{"name": "Tuck Pot", "longitude": "-121.119203", "county": "Kittitas County", "latitude": "47.587168", "alt": "5264", "size": "1.1"},
{"name": "Cooney", "longitude": "-120.348647", "county": "Okanogan County", "latitude": "48.177970", "alt": "7246", "size": "7.9"},
{"name": "Cornwell", "longitude": "-120.201391", "county": "Okanogan County", "latitude": "48.935531", "alt": "6954", "size": "6.4"},
{"name": "Dutton - Lower", "longitude": "-120.192607", "county": "Okanogan County", "latitude": "48.862734", "alt": "6832", "size": "2.6"},
{"name": "Eagle - Middle", "longitude": "-120.340711", "county": "Okanogan County", "latitude": "48.211659", "alt": "7027", "size": "2.1"},
{"name": "Glory", "longitude": "-120.241182", "county": "Okanogan County", "latitude": "48.908928", "alt": "6671", "size": "1.6"},
{"name": "Halfmoon", "longitude": "-120.245434", "county": "Okanogan County", "latitude": "48.828214", "alt": "6716", "size": "10.9"},
{"name": "No Dice", "longitude": "-120.339680", "county": "Okanogan County", "latitude": "48.770792", "alt": "6545", "size": "2.9"},
{"name": "Sheep", "longitude": "-120.379415", "county": "Okanogan County", "latitude": "48.972990", "alt": "7080", "size": "4.4"},
{"name": "South Pot 1", "longitude": "-120.639657", "county": "Okanogan County", "latitude": "48.431283", "alt": "6262", "size": "1.0"},
{"name": "White (1)", "longitude": "-120.549642", "county": "Okanogan County", "latitude": "48.909010", "alt": "6350", "size": "3.0"},
{"name": "White (2)", "longitude": "-120.544872", "county": "Okanogan County", "latitude": "48.905782", "alt": "6592", "size": "1.9"},
{"name": "Jerry No. 2", "longitude": "-120.921115", "county": "Whatcom County", "latitude": "48.757497", "alt": "5916", "size": "1.1"},
{"name": "Jerry No. 3", "longitude": "-120.924967", "county": "Whatcom County", "latitude": "48.755677", "alt": "5934", "size": "27.1"},
{"name": "Leech Lake", "longitude": "-121.387300", "county": "Yakima County", "latitude": "46.642690", "alt": "4416", "size": "41.7"},
{"name": "Sheep", "longitude": "-121.502480", "county": "Yakima County", "latitude": "46.894570", "alt": "5760", "size": "2.5"},
{"name": "Art", "longitude": "-121.607602", "county": "Lewis County", "last_stocked_amt": "60", "latitude": "46.602913", "alt": "3839", "last_stocked_date": "Aug 29, 2012", "size": "1.6"},
{"name": "Delia", "longitude": "-121.695812", "county": "Skamania County", "last_stocked_amt": "200", "latitude": "45.961230", "alt": "3357", "last_stocked_date": "Jul 8, 2003", "size": "1.3"},
{"name": "Elk", "longitude": "-121.795763", "county": "Skamania County", "last_stocked_amt": "808", "latitude": "46.021834", "alt": "4689", "last_stocked_date": "Sep 20, 2011", "size": "12.5"},
{"name": "Dry Creek Beaver Pond", "longitude": "-121.767184", "county": "Skamania County", "last_stocked_amt": "200", "latitude": "45.966439", "alt": "3793", "last_stocked_date": "Jun 25, 2007", "size": "1.3"},
{"name": "Deer", "longitude": "-121.787427", "county": "Skamania County", "last_stocked_amt": "429", "latitude": "46.024172", "alt": "4824", "last_stocked_date": "Sep 20, 2011", "size": "5.2"},
{"name": "Deep", "longitude": "-121.770026", "county": "Skamania County", "last_stocked_amt": "616", "latitude": "46.031815", "alt": "5103", "last_stocked_date": "Sep 18, 2010", "size": "5.5"},
{"name": "Bench", "longitude": "-121.501307", "county": "King County", "latitude": "47.656379", "alt": "4185", "size": "2.9"},
{"name": "Bertha", "longitude": "-121.246329", "county": "King County", "latitude": "47.755337", "alt": "4319", "size": "2.3"},
{"name": "Bertha Lake Pot", "longitude": "-121.247532", "county": "King County", "latitude": "47.755928", "alt": "4318", "size": "0.2"},
{"name": "Bonnie", "longitude": "-121.272470", "county": "King County", "latitude": "47.565648", "alt": "4874", "size": "7.9"},
{"name": "Delta", "longitude": "-121.310016", "county": "King County", "latitude": "47.591733", "alt": "3235", "size": "45.6"},
{"name": "Embro", "longitude": "-121.173946", "county": "King County", "latitude": "47.736266", "alt": "4156", "size": "9.4"},
{"name": "Emerald", "longitude": "-121.255475", "county": "King County", "latitude": "47.580307", "alt": "4705", "size": "2.6"},
{"name": "Grace (1)", "longitude": "-121.109842", "county": "King County", "latitude": "47.740680", "alt": "4508", "size": "1.4"},
{"name": "Grace (2)", "longitude": "-121.109942", "county": "King County", "latitude": "47.738338", "alt": "4670", "size": "1.1"},
{"name": "Grace (3)", "longitude": "-121.110816", "county": "King County", "latitude": "47.735669", "alt": "4866", "size": "0.5"},
{"name": "Grace (4)", "longitude": "-121.112998", "county": "King County", "latitude": "47.736606", "alt": "4793", "size": "1.3"},
{"name": "Gus", "longitude": "-121.341020", "county": "King County", "latitude": "47.565426", "alt": "4228", "size": "10.3"},
{"name": "Gus - Little", "longitude": "-121.347904", "county": "King County", "latitude": "47.569968", "alt": "4154", "size": "3.1"},
{"name": "Hardscrabble Pot - Lwr", "longitude": "-121.351291", "county": "King County", "latitude": "47.524725", "alt": "4047", "size": "0.3"},
{"name": "Jade", "longitude": "-121.257818", "county": "King County", "latitude": "47.584823", "alt": "4614", "size": "3.8"},
{"name": "Jewel", "longitude": "-121.275979", "county": "King County", "latitude": "47.590843", "alt": "4471", "size": "7.8"},
{"name": "Mosquito", "longitude": "-121.147788", "county": "King County", "latitude": "47.763419", "alt": "4470", "size": "1.2"},
{"name": "Mosquito Pothole - E", "longitude": "-121.143604", "county": "King County", "latitude": "47.763413", "alt": "4590", "size": "2.1"},
{"name": "Mt Fernow Pothole 3", "longitude": "-121.235209", "county": "King County", "latitude": "47.766663", "alt": "4381", "size": "0.9"},
{"name": "Murphy - Upper", "longitude": "-121.129951", "county": "King County", "latitude": "47.683804", "alt": "4748", "size": "6.5"},
{"name": "Olallie", "longitude": "-121.510259", "county": "King County", "latitude": "47.422552", "alt": "3785", "size": "13.2"},
{"name": "Panorama", "longitude": "-121.335587", "county": "King County", "latitude": "47.630702", "alt": "5282", "size": "8.0"},
{"name": "Pugsley (Dans)", "longitude": "-121.399945", "county": "King County", "latitude": "47.586085", "alt": "3419", "size": "16.7"},
{"name": "Purvis", "longitude": "-121.346616", "county": "King County", "latitude": "47.627731", "alt": "5313", "size": "6.9"},
{"name": "Rock", "longitude": "-121.335078", "county": "King County", "latitude": "47.640293", "alt": "4550", "size": "23.1"},
{"name": "Summit (Mosquito)", "longitude": "-121.114923", "county": "King County", "latitude": "47.739428", "alt": "4589", "size": "5.4"},
{"name": "Tusco Out-In Pot - Large", "longitude": "-121.490203", "county": "King County", "latitude": "47.435231", "alt": "3674", "size": "5.5"},
{"name": "Tusco Out-In Pot - Small", "longitude": "-121.492152", "county": "King County", "latitude": "47.435080", "alt": "3673", "size": "1.6"},
{"name": "Tye", "longitude": "-121.112086", "county": "King County", "latitude": "47.765056", "alt": "4682", "size": "3.2"},
{"name": "Yutaka", "longitude": "-121.123857", "county": "King County", "latitude": "47.775467", "alt": "4754", "size": "2.2"},
{"name": "Campbell", "longitude": "-121.487371", "county": "Pierce County", "latitude": "46.916324", "alt": "5591", "size": "0.4"},
{"name": "Christine", "longitude": "-121.936279", "county": "Pierce County", "latitude": "46.777571", "alt": "4806", "size": "2.6"},
{"name": "Coplay", "longitude": "-121.832592", "county": "Pierce County", "latitude": "47.024651", "alt": "3893", "size": "18.5"},
{"name": "EB Pot", "longitude": "-121.927362", "county": "Pierce County", "latitude": "47.025110", "alt": "4026", "size": "2.4"},
{"name": "Goat", "longitude": "-121.924495", "county": "Pierce County", "latitude": "46.793311", "alt": "4347", "size": "7.7"},
{"name": "Henskin - Lower", "longitude": "-121.483834", "county": "Pierce County", "latitude": "46.918372", "alt": "5480", "size": "2.2"},
{"name": "Henskin - Upper", "longitude": "-121.487882", "county": "Pierce County", "latitude": "46.915721", "alt": "5594", "size": "0.4"},
{"name": "Arrowhead", "longitude": "-121.290053", "county": "Skagit County", "latitude": "48.432548", "alt": "4411", "size": "10.5"},
{"name": "Found", "longitude": "-121.253438", "county": "Skagit County", "latitude": "48.434211", "alt": "4027", "size": "62.9"},
{"name": "Bath Pot 1", "longitude": "-121.079558", "county": "Snohomish County", "latitude": "48.248745", "alt": "5634", "size": "0.9"},
{"name": "Box Mtn - Lower", "longitude": "-121.215524", "county": "Snohomish County", "latitude": "48.224075", "alt": "5064", "size": "23.3"},
{"name": "Box Mtn - Upper", "longitude": "-121.220456", "county": "Snohomish County", "latitude": "48.222515", "alt": "5229", "size": "4.4"},
{"name": "Cup", "longitude": "-121.141114", "county": "Snohomish County", "latitude": "47.826317", "alt": "4715", "size": "10.6"},
{"name": "Flapjack Point Pot", "longitude": "-121.370943", "county": "Snohomish County", "latitude": "47.791192", "alt": "4384", "size": "2.1"},
{"name": "Gulch (2)", "longitude": "-121.456076", "county": "Snohomish County", "latitude": "47.938696", "alt": "3632", "size": "3.9"},
{"name": "Joan Pot", "longitude": "-121.193848", "county": "Snohomish County", "latitude": "47.790958", "alt": "5060", "size": "0.2"},
{"name": "Saucer", "longitude": "-121.147340", "county": "Snohomish County", "latitude": "47.829128", "alt": "4487", "size": "15.0"},
{"name": "Twin - Lower", "longitude": "-121.377239", "county": "Snohomish County", "latitude": "47.949446", "alt": "4624", "size": "23.3"},
{"name": "Bagley - Upper", "longitude": "-121.684465", "county": "Whatcom County", "latitude": "48.860064", "alt": "4172", "size": "3.8"},
{"name": "Baker Lake", "longitude": "-121.628304", "county": "Whatcom County", "latitude": "48.726836", "alt": "703", "size": "4755.3"},
{"name": "Blue", "longitude": "-121.792541", "county": "Whatcom County", "latitude": "48.646984", "alt": "3984", "size": "12.2"},
{"name": "Iceberg", "longitude": "-121.717971", "county": "Whatcom County", "latitude": "48.854069", "alt": "4797", "size": "36.5"},
{"name": "Pocket No. 1", "longitude": "-121.532349", "county": "Whatcom County", "latitude": "48.985594", "alt": "4515", "size": "4.9"},
{"name": "Twin - Lower", "longitude": "-121.638326", "county": "Whatcom County", "latitude": "48.951190", "alt": "5165", "size": "18.2"},
{"name": "Twin - Upper", "longitude": "-121.633053", "county": "Whatcom County", "latitude": "48.953043", "alt": "5181", "size": "16.4"},
{"name": "Watson Pot", "longitude": "-121.582656", "county": "Whatcom County", "latitude": "48.669677", "alt": "4332", "size": "1.8"},
{"name": "Cougar - Little", "longitude": "-121.447586", "county": "Yakima County", "latitude": "46.813758", "alt": "5024", "size": "12.5"},
{"name": "Dewey - Upper", "longitude": "-121.490110", "county": "Yakima County", "latitude": "46.854937", "alt": "5134", "size": "7.6"},
{"name": "Cultus", "longitude": "-121.773182", "county": "Skamania County", "last_stocked_amt": "420", "latitude": "46.029440", "alt": "5072", "last_stocked_date": "Sep 18, 2010", "size": "2.7"},
{"name": "Dee", "longitude": "-121.830099", "county": "Skamania County", "last_stocked_amt": "270", "latitude": "46.005344", "alt": "4296", "last_stocked_date": "Jul 16, 2013", "size": "2.7"},
{"name": "Chain of Lakes", "longitude": "-121.600001", "county": "Skamania County", "last_stocked_amt": "2,589", "latitude": "46.294081", "alt": "4374", "last_stocked_date": "Aug 8, 2011", "size": "11.3"},
{"name": "Comcomly", "longitude": "-121.720043", "county": "Skamania County", "last_stocked_amt": "504", "latitude": "46.022034", "alt": "4272", "last_stocked_date": "Sep 18, 2010", "size": "3.0"},
{"name": "Council Lake", "longitude": "-121.629467", "county": "Skamania County", "last_stocked_amt": "3,636", "latitude": "46.266702", "alt": "4225", "last_stocked_date": "Jun 20, 2001", "size": "43.7"},
{"name": "Wood", "longitude": "-121.786165", "county": "Skamania County", "last_stocked_amt": "1,156", "latitude": "46.049157", "alt": "4869", "last_stocked_date": "Sep 3, 2013", "size": "9.5"},
{"name": "Triumph", "longitude": "-121.388576", "county": "Whatcom County", "last_stocked_amt": "148", "latitude": "48.679561", "alt": "3707", "last_stocked_date": "Aug 24, 2002", "size": "4.2"},
{"name": "Thornton - Middle", "longitude": "-121.335368", "county": "Whatcom County", "last_stocked_amt": "728", "latitude": "48.689622", "alt": "4701", "last_stocked_date": "Sep 21, 2004", "size": "11.7"},
{"name": "Lincoln Pond", "longitude": "-123.310829", "county": "Mason County", "last_stocked_amt": "650", "latitude": "47.546532", "alt": "4441", "last_stocked_date": "Sep 10, 2007", "size": "3.2"},
{"name": "Unnamed - L28977", "longitude": "-121.098301", "county": "Yakima County", "last_stocked_amt": "275", "latitude": "46.609870", "alt": "3876", "last_stocked_date": "Aug 5, 2003", "size": "1.1"},
{"name": "Tieton Ranger Pond", "longitude": "-121.074446", "county": "Yakima County", "last_stocked_amt": "300", "latitude": "46.692050", "alt": "3270", "last_stocked_date": "May 8, 2006", "size": "2.3"},
{"name": "Placer", "longitude": "-121.481431", "county": "Yakima County", "last_stocked_amt": "480", "latitude": "46.904563", "alt": "5380", "last_stocked_date": "Jul 30, 2003", "size": "3.1"},
{"name": "Thunder", "longitude": "-121.150406", "county": "Yakima County", "last_stocked_amt": "330", "latitude": "46.674180", "alt": "3467", "last_stocked_date": "May 25, 2005", "size": "0.4"},
{"name": "Phantom", "longitude": "-121.271401", "county": "Yakima County", "last_stocked_amt": "132", "latitude": "46.526424", "alt": "4304", "last_stocked_date": "Aug 16, 2012", "size": "1.0"},
{"name": "McDaniel Lake", "longitude": "-121.110328", "county": "Yakima County", "last_stocked_amt": "2,363", "latitude": "46.807241", "alt": "3438", "last_stocked_date": "May 6, 2002", "size": "4.2"},
{"name": "Mal", "longitude": "-121.110889", "county": "Yakima County", "last_stocked_amt": "551", "latitude": "46.771227", "alt": "4074", "last_stocked_date": "May 25, 2005", "size": "0.9"},
{"name": "Wildcat", "longitude": "-121.432362", "county": "Yakima County", "last_stocked_amt": "211", "latitude": "46.819239", "alt": "5188", "last_stocked_date": "Jul 12, 2010", "size": "1.3"},
{"name": "Warm", "longitude": "-121.384178", "county": "Yakima County", "last_stocked_amt": "75", "latitude": "46.476247", "alt": "6346", "last_stocked_date": "Sep 30, 2011", "size": "1.1"},
{"name": "Unnamed - L29857", "longitude": "-121.350850", "county": "Yakima County", "last_stocked_amt": "200", "latitude": "46.700595", "alt": "5146", "last_stocked_date": "Aug 19, 2002", "size": "1.0"},
{"name": "Two Lakes", "longitude": "-121.447198", "county": "Yakima County", "last_stocked_amt": "360", "latitude": "46.786483", "alt": "5384", "last_stocked_date": "Sep 22, 2012", "size": "2.9"},
{"name": "Surprise", "longitude": "-121.359420", "county": "Yakima County", "last_stocked_amt": "800", "latitude": "46.469207", "alt": "5259", "last_stocked_date": "Aug 31, 2012", "size": "7.1"},
{"name": "Three Sombreros", "longitude": "-121.382846", "county": "Yakima County", "last_stocked_amt": "120", "latitude": "47.013062", "alt": "5070", "last_stocked_date": "Aug 5, 2010", "size": "0.5"},
{"name": "Shellrock", "longitude": "-121.345549", "county": "Yakima County", "last_stocked_amt": "1,400", "latitude": "46.685099", "alt": "4930", "last_stocked_date": "Aug 10, 2012", "size": "10.7"},
{"name": "Sandstone", "longitude": "-121.176123", "county": "Yakima County", "last_stocked_amt": "240", "latitude": "46.946427", "alt": "3439", "last_stocked_date": "Aug 25, 2012", "size": "1.2"},
{"name": "Root", "longitude": "-121.362728", "county": "Yakima County", "last_stocked_amt": "639", "latitude": "46.808645", "alt": "5311", "last_stocked_date": "Jul 21, 2010", "size": "4.7"},
{"name": "Sheepherder", "longitude": "-121.362135", "county": "Yakima County", "last_stocked_amt": "280", "latitude": "46.985172", "alt": "4952", "last_stocked_date": "Aug 28, 2012", "size": "3.2"},
{"name": "Pleasant 2 (Pleasant Valley)", "longitude": "-121.303539", "county": "Yakima County", "last_stocked_amt": "120", "latitude": "46.934729", "alt": "4194", "last_stocked_date": "Jul 6, 2012", "size": "0.5"},
{"name": "Richmond", "longitude": "-121.245629", "county": "Yakima County", "last_stocked_amt": "75", "latitude": "46.846730", "alt": "5994", "last_stocked_date": "Sep 19, 2013", "size": "2.1"},
{"name": "Pillar", "longitude": "-121.363991", "county": "Yakima County", "last_stocked_amt": "460", "latitude": "46.700316", "alt": "5278", "last_stocked_date": "Aug 12, 2011", "size": "3.5"},
{"name": "Otter", "longitude": "-121.361388", "county": "Yakima County", "last_stocked_amt": "900", "latitude": "46.687729", "alt": "5039", "last_stocked_date": "Aug 26, 2012", "size": "4.3"},
{"name": "One", "longitude": "-121.444886", "county": "Yakima County", "last_stocked_amt": "125", "latitude": "46.781204", "alt": "5057", "last_stocked_date": "Sep 22, 2012", "size": "1.8"},
{"name": "Long John", "longitude": "-121.368317", "county": "Yakima County", "last_stocked_amt": "480", "latitude": "46.697813", "alt": "5154", "last_stocked_date": "Sep 3, 2011", "size": "2.5"},
{"name": "Melba", "longitude": "-121.342929", "county": "Yakima County", "last_stocked_amt": "210", "latitude": "46.691880", "alt": "5032", "last_stocked_date": "Aug 4, 2011", "size": "1.9"},
{"name": "Janet", "longitude": "-121.382911", "county": "Yakima County", "last_stocked_amt": "420", "latitude": "47.008576", "alt": "5036", "last_stocked_date": "Sep 3, 2011", "size": "4.6"},
{"name": "Hill", "longitude": "-121.349144", "county": "Yakima County", "last_stocked_amt": "600", "latitude": "46.698170", "alt": "5115", "last_stocked_date": "Aug 12, 2011", "size": "4.5"},
{"name": "Hell", "longitude": "-121.368434", "county": "Yakima County", "last_stocked_amt": "340", "latitude": "46.622639", "alt": "5429", "last_stocked_date": "Aug 9, 2010", "size": "2.3"},
{"name": "Gold Hill 1", "longitude": "-121.385107", "county": "Yakima County", "last_stocked_amt": "490", "latitude": "46.935997", "alt": "5640", "last_stocked_date": "Sep 1, 2010", "size": "3.2"},
{"name": "Flatiron", "longitude": "-121.194221", "county": "Yakima County", "last_stocked_amt": "546", "latitude": "46.888510", "alt": "5595", "last_stocked_date": "Aug 14, 2012", "size": "6.1"},
{"name": "Dog Lake", "longitude": "-121.359731", "county": "Yakima County", "last_stocked_amt": "5,100", "latitude": "46.657375", "alt": "4211", "last_stocked_date": "May 26, 2006", "size": "59.9"},
{"name": "Devils Washbasin", "longitude": "-121.369227", "county": "Yakima County", "last_stocked_amt": "248", "latitude": "46.521232", "alt": "6271", "last_stocked_date": "Sep 15, 2010", "size": "1.4"},
{"name": "Cramer", "longitude": "-121.365869", "county": "Yakima County", "last_stocked_amt": "990", "latitude": "46.683668", "alt": "5029", "last_stocked_date": "Jul 19, 2012", "size": "17.7"},
{"name": "Deer", "longitude": "-121.410980", "county": "Yakima County", "last_stocked_amt": "700", "latitude": "46.651058", "alt": "5229", "last_stocked_date": "Sep 3, 2010", "size": "12.3"},
{"name": "Crag", "longitude": "-121.433483", "county": "Yakima County", "last_stocked_amt": "630", "latitude": "46.771929", "alt": "5024", "last_stocked_date": "Sep 12, 2012", "size": "6.3"},
{"name": "Conrad 1", "longitude": "-121.321760", "county": "Yakima County", "last_stocked_amt": "120", "latitude": "46.512143", "alt": "5315", "last_stocked_date": "Aug 17, 2010", "size": "3.7"},
{"name": "Clear Lake", "longitude": "-121.276216", "county": "Yakima County", "last_stocked_amt": "2,220", "latitude": "46.627734", "alt": "2994", "last_stocked_date": "Sep 25, 2000", "size": "232.1"},
{"name": "Cedar", "longitude": "-121.422232", "county": "Yakima County", "last_stocked_amt": "1,200", "latitude": "46.841415", "alt": "5249", "last_stocked_date": "Aug 30, 2012", "size": "10.5"},
{"name": "Cirque", "longitude": "-121.299275", "county": "Yakima County", "last_stocked_amt": "800", "latitude": "46.460608", "alt": "5657", "last_stocked_date": "Aug 29, 2012", "size": "7.8"},
{"name": "Buck", "longitude": "-121.429287", "county": "Yakima County", "last_stocked_amt": "280", "latitude": "46.769143", "alt": "4674", "last_stocked_date": "Sep 12, 2012", "size": "3.0"},
{"name": "Blankenship Pot 26", "longitude": "-121.316893", "county": "Yakima County", "last_stocked_amt": "210", "latitude": "46.719922", "alt": "4990", "last_stocked_date": "Aug 22, 2000", "size": "1.7"},
{"name": "Brown", "longitude": "-121.348719", "county": "Yakima County", "last_stocked_amt": "240", "latitude": "46.699911", "alt": "5117", "last_stocked_date": "Aug 10, 2012", "size": "2.1"},
{"name": "Blankenship - North", "longitude": "-121.336790", "county": "Yakima County", "last_stocked_amt": "410", "latitude": "46.723511", "alt": "5272", "last_stocked_date": "Aug 23, 2012", "size": "3.7"},
{"name": "Blankenship - South", "longitude": "-121.337106", "county": "Yakima County", "last_stocked_amt": "680", "latitude": "46.721147", "alt": "5269", "last_stocked_date": "Aug 23, 2012", "size": "5.8"},
{"name": "Bauer", "longitude": "-121.256582", "county": "Yakima County", "last_stocked_amt": "150", "latitude": "46.850318", "alt": "6358", "last_stocked_date": "Sep 19, 2013", "size": "1.4"},
{"name": "Basin", "longitude": "-121.439368", "county": "Yakima County", "last_stocked_amt": "575", "latitude": "46.953614", "alt": "5840", "last_stocked_date": "Aug 25, 2012", "size": "4.1"},
{"name": "Blankenship - East", "longitude": "-121.333057", "county": "Yakima County", "last_stocked_amt": "960", "latitude": "46.722047", "alt": "5234", "last_stocked_date": "Aug 23, 2012", "size": "7.8"},
{"name": "Art", "longitude": "-121.357105", "county": "Yakima County", "last_stocked_amt": "210", "latitude": "46.698562", "alt": "5236", "last_stocked_date": "Aug 10, 2012", "size": "1.6"},
{"name": "Anna", "longitude": "-121.365740", "county": "Yakima County", "last_stocked_amt": "280", "latitude": "47.004600", "alt": "4755", "last_stocked_date": "Sep 22, 2012", "size": "1.7"},
{"name": "American", "longitude": "-121.458107", "county": "Yakima County", "last_stocked_amt": "450", "latitude": "46.817884", "alt": "5268", "last_stocked_date": "Aug 5, 2010", "size": "5.4"},
{"name": "Watson - Upper (Little)", "longitude": "-121.590559", "county": "Whatcom County", "last_stocked_amt": "1,125", "latitude": "48.666193", "alt": "4415", "last_stocked_date": "Sep 10, 2008", "size": "16.3"},
{"name": "Wiseman - Little", "longitude": "-121.948416", "county": "Whatcom County", "last_stocked_amt": "110", "latitude": "48.703116", "alt": "4438", "last_stocked_date": "Sep 27, 2008", "size": "2.0"},
{"name": "Watson - Lower (Big)", "longitude": "-121.579029", "county": "Whatcom County", "last_stocked_amt": "1,200", "latitude": "48.667703", "alt": "4401", "last_stocked_date": "Aug 3, 2010", "size": "47.3"},
{"name": "Wiseman", "longitude": "-121.939209", "county": "Whatcom County", "last_stocked_amt": "1,000", "latitude": "48.707009", "alt": "4223", "last_stocked_date": "Sep 27, 2008", "size": "19.4"},
{"name": "Shuksan Pot - Large", "longitude": "-121.572930", "county": "Whatcom County", "last_stocked_amt": "150", "latitude": "48.766747", "alt": "4237", "last_stocked_date": "Oct 6, 2013", "size": "2.5"},
{"name": "Tuckway", "longitude": "-121.791249", "county": "Whatcom County", "last_stocked_amt": "70", "latitude": "48.656836", "alt": "3868", "last_stocked_date": "Jul 19, 2007", "size": "1.2"},
{"name": "Shuksan", "longitude": "-121.573469", "county": "Whatcom County", "last_stocked_amt": "4,370", "latitude": "48.773767", "alt": "3698", "last_stocked_date": "Aug 1, 2006", "size": "29.0"},
{"name": "String - Upper", "longitude": "-121.657646", "county": "Whatcom County", "last_stocked_amt": "187", "latitude": "48.813148", "alt": "4944", "last_stocked_date": "Jul 30, 2013", "size": "1.8"},
{"name": "Rankin", "longitude": "-121.890665", "county": "Whatcom County", "last_stocked_amt": "75", "latitude": "48.753249", "alt": "5079", "last_stocked_date": "Sep 17, 2011", "size": "1.4"},
{"name": "Rainbow", "longitude": "-121.711751", "county": "Whatcom County", "last_stocked_amt": "180", "latitude": "48.789018", "alt": "2920", "last_stocked_date": "Sep 13, 2010", "size": "1.3"},
{"name": "Pocket", "longitude": "-121.843833", "county": "Whatcom County", "last_stocked_amt": "100", "latitude": "48.711935", "alt": "4587", "last_stocked_date": "Sep 7, 2012", "size": "2.7"},
{"name": "Pinus", "longitude": "-121.786319", "county": "Whatcom County", "last_stocked_amt": "100", "latitude": "48.904843", "alt": "2477", "last_stocked_date": "Aug 24, 2011", "size": "0.7"},
{"name": "Picture", "longitude": "-121.677131", "county": "Whatcom County", "last_stocked_amt": "210", "latitude": "48.865433", "alt": "4117", "last_stocked_date": "Sep 20, 2006", "size": "3.0"},
{"name": "Maiden", "longitude": "-121.664967", "county": "Whatcom County", "last_stocked_amt": "2,300", "latitude": "48.799895", "alt": "3923", "last_stocked_date": "Sep 9, 2003", "size": "18.3"},
{"name": "Hawkeye", "longitude": "-121.711314", "county": "Whatcom County", "last_stocked_amt": "200", "latitude": "48.863818", "alt": "4986", "last_stocked_date": "Sep 8, 2013", "size": "6.0"},
{"name": "Green Drop 2", "longitude": "-121.690953", "county": "Whatcom County", "last_stocked_amt": "40", "latitude": "48.950349", "alt": "5514", "last_stocked_date": "Sep 23, 2010", "size": "1.2"},
{"name": "Doreen - Pothole", "longitude": "-121.904977", "county": "Whatcom County", "last_stocked_amt": "50", "latitude": "48.707582", "alt": "4236", "last_stocked_date": "Aug 5, 2006", "size": "1.9"},
{"name": "Elbow", "longitude": "-121.914935", "county": "Whatcom County", "last_stocked_amt": "200", "latitude": "48.709997", "alt": "3382", "last_stocked_date": "Jul 24, 2005", "size": "4.9"},
{"name": "Church", "longitude": "-121.849125", "county": "Whatcom County", "last_stocked_amt": "230", "latitude": "48.949530", "alt": "5146", "last_stocked_date": "Sep 1, 2013", "size": "8.7"},
{"name": "Bearpaw Mtn", "longitude": "-121.841096", "county": "Whatcom County", "last_stocked_amt": "496", "latitude": "48.951348", "alt": "4425", "last_stocked_date": "Sep 10, 2011", "size": "5.9"},
{"name": "Anderson 3", "longitude": "-121.587069", "county": "Whatcom County", "last_stocked_amt": "75", "latitude": "48.657710", "alt": "4980", "last_stocked_date": "Sep 28, 2013", "size": "1.0"},
{"name": "Anderson 2", "longitude": "-121.588592", "county": "Whatcom County", "last_stocked_amt": "130", "latitude": "48.659238", "alt": "4970", "last_stocked_date": "Sep 28, 2013", "size": "3.1"},
{"name": "Anderson 1", "longitude": "-121.595146", "county": "Whatcom County", "last_stocked_amt": "170", "latitude": "48.659798", "alt": "4443", "last_stocked_date": "Oct 1, 2012", "size": "4.3"},
{"name": "White Chuck", "longitude": "-121.405788", "county": "Snohomish County", "last_stocked_amt": "59", "latitude": "48.215399", "alt": "4391", "last_stocked_date": "Sep 10, 2011", "size": "0.2"},
{"name": "Wayhut (Boulder)", "longitude": "-121.355197", "county": "Snohomish County", "last_stocked_amt": "200", "latitude": "47.836360", "alt": "4387", "last_stocked_date": "Sep 13, 2011", "size": "5.8"},
{"name": "Windom", "longitude": "-121.542881", "county": "Snohomish County", "last_stocked_amt": "50", "latitude": "48.131515", "alt": "3543", "last_stocked_date": "Sep 14, 2013", "size": "3.6"},
{"name": "Unnamed - L31364", "longitude": "-121.529232", "county": "Snohomish County", "last_stocked_amt": "70", "latitude": "48.130127", "alt": "4749", "last_stocked_date": "Sep 22, 2002", "size": "0.7"},
{"name": "Triad", "longitude": "-120.957970", "county": "Snohomish County", "last_stocked_amt": "199", "latitude": "48.112848", "alt": "6525", "last_stocked_date": "Oct 11, 2012", "size": "12.5"},
{"name": "Twin - Upper", "longitude": "-121.377547", "county": "Snohomish County", "last_stocked_amt": "1,012", "latitude": "47.953483", "alt": "4704", "last_stocked_date": "Sep 27, 2010", "size": "64.5"},
{"name": "Twin - Upper", "longitude": "-121.199232", "county": "Snohomish County", "last_stocked_amt": "998", "latitude": "48.207539", "alt": "5547", "last_stocked_date": "Aug 27, 2001", "size": "19.7"},
{"name": "Sunset", "longitude": "-121.396265", "county": "Snohomish County", "last_stocked_amt": "500", "latitude": "47.817864", "alt": "4184", "last_stocked_date": "Oct 5, 2002", "size": "37.8"},
{"name": "Thornton", "longitude": "-121.407024", "county": "Snohomish County", "last_stocked_amt": "379", "latitude": "48.204908", "alt": "4407", "last_stocked_date": "Aug 20, 2010", "size": "18.7"},
{"name": "Tom", "longitude": "-121.476692", "county": "Snohomish County", "last_stocked_amt": "60", "latitude": "47.847998", "alt": "3353", "last_stocked_date": "Sep 13, 2013", "size": "1.3"},
{"name": "Sunbow", "longitude": "-121.107602", "county": "Snohomish County", "last_stocked_amt": "297", "latitude": "48.230137", "alt": "5881", "last_stocked_date": "Sep 13, 2009", "size": "3.6"},
{"name": "Stone", "longitude": "-121.409343", "county": "Snohomish County", "last_stocked_amt": "50", "latitude": "47.789500", "alt": "3880", "last_stocked_date": "Oct 5, 2013", "size": "0.8"},
{"name": "Sulphur Mtn", "longitude": "-121.138286", "county": "Snohomish County", "last_stocked_amt": "338", "latitude": "48.245812", "alt": "5189", "last_stocked_date": "Sep 4, 2003", "size": "4.9"},
{"name": "South", "longitude": "-121.482800", "county": "Snohomish County", "last_stocked_amt": "595", "latitude": "48.098975", "alt": "4546", "last_stocked_date": "Nov 1, 2013", "size": "12.0"},
{"name": "Son of a Gunn", "longitude": "-121.461406", "county": "Snohomish County", "last_stocked_amt": "50", "latitude": "47.828795", "alt": "4560", "last_stocked_date": "Sep 24, 2011", "size": "0.6"},
{"name": "Snowslide Pot 2", "longitude": "-121.521144", "county": "Snohomish County", "last_stocked_amt": "90", "latitude": "47.888163", "alt": "4436", "last_stocked_date": "Oct 13, 2012", "size": "0.9"},
{"name": "Snowslide", "longitude": "-121.527564", "county": "Snohomish County", "last_stocked_amt": "210", "latitude": "47.888734", "alt": "4265", "last_stocked_date": "Oct 13, 2012", "size": "8.2"},
{"name": "Snowshoe", "longitude": "-121.120502", "county": "Snohomish County", "last_stocked_amt": "145", "latitude": "48.254322", "alt": "4883", "last_stocked_date": "Jul 21, 2009", "size": "1.7"},
{"name": "Scrabble", "longitude": "-121.159106", "county": "Snohomish County", "last_stocked_amt": "100", "latitude": "47.820477", "alt": "4799", "last_stocked_date": "Sep 8, 2013", "size": "1.7"},
{"name": "Round", "longitude": "-121.309881", "county": "Snohomish County", "last_stocked_amt": "500", "latitude": "48.121718", "alt": "5054", "last_stocked_date": "Aug 24, 2013", "size": "16.5"},
{"name": "Saddle", "longitude": "-121.756885", "county": "Snohomish County", "last_stocked_amt": "209", "latitude": "48.178748", "alt": "3784", "last_stocked_date": "Oct 9, 2013", "size": "3.5"},
{"name": "Ruby", "longitude": "-121.263442", "county": "Snohomish County", "last_stocked_amt": "180", "latitude": "48.071427", "alt": "5435", "last_stocked_date": "Oct 2, 2009", "size": "2.4"},
{"name": "Rose", "longitude": "-121.623378", "county": "Snohomish County", "last_stocked_amt": "110", "latitude": "47.907250", "alt": "4300", "last_stocked_date": "Aug 4, 2010", "size": "1.4"},
{"name": "Quartz", "longitude": "-121.308799", "county": "Snohomish County", "last_stocked_amt": "200", "latitude": "47.971668", "alt": "4799", "last_stocked_date": "Aug 2, 2009", "size": "1.1"},
{"name": "Rivord", "longitude": "-121.207855", "county": "Snohomish County", "last_stocked_amt": "1,000", "latitude": "48.213017", "alt": "5342", "last_stocked_date": "Sep 9, 2003", "size": "22.4"},
{"name": "Peek-a-boo", "longitude": "-121.475340", "county": "Snohomish County", "last_stocked_amt": "800", "latitude": "48.136868", "alt": "3906", "last_stocked_date": "Sep 26, 2013", "size": "18.5"},
{"name": "Pass", "longitude": "-121.514906", "county": "Snohomish County", "last_stocked_amt": "40", "latitude": "48.119748", "alt": "3706", "last_stocked_date": "Oct 13, 2013", "size": "3.1"},
{"name": "North Star - Lower", "longitude": "-121.546735", "county": "Snohomish County", "last_stocked_amt": "100", "latitude": "47.856765", "alt": "4436", "last_stocked_date": "Aug 3, 2009", "size": "1.0"},
{"name": "North Star - Upper", "longitude": "-121.549161", "county": "Snohomish County", "last_stocked_amt": "80", "latitude": "47.857925", "alt": "4594", "last_stocked_date": "Sep 14, 2004", "size": "0.5"},
{"name": "North", "longitude": "-121.519579", "county": "Snohomish County", "last_stocked_amt": "300", "latitude": "48.135420", "alt": "4162", "last_stocked_date": "Aug 26, 2010", "size": "31.8"},
{"name": "Palisade", "longitude": "-121.118155", "county": "Snohomish County", "last_stocked_amt": "350", "latitude": "48.234943", "alt": "5744", "last_stocked_date": "Sep 12, 2009", "size": "5.2"},
{"name": "Nomad", "longitude": "-121.304046", "county": "Snohomish County", "last_stocked_amt": "50", "latitude": "48.136827", "alt": "4189", "last_stocked_date": "Jul 17, 2006", "size": "0.5"},
{"name": "Nels (Bedal)", "longitude": "-121.361086", "county": "Snohomish County", "last_stocked_amt": "210", "latitude": "48.082595", "alt": "3954", "last_stocked_date": "Aug 28, 2009", "size": "3.4"},
{"name": "Mt Townsend Pot", "longitude": "-121.379184", "county": "Snohomish County", "last_stocked_amt": "100", "latitude": "47.794799", "alt": "4834", "last_stocked_date": "Aug 27, 2011", "size": "1.0"},
{"name": "Misty", "longitude": "-121.300685", "county": "Snohomish County", "last_stocked_amt": "85", "latitude": "48.144014", "alt": "4912", "last_stocked_date": "Sep 14, 2013", "size": "2.0"},
{"name": "Mica", "longitude": "-121.159938", "county": "Snohomish County", "last_stocked_amt": "912", "latitude": "48.166110", "alt": "5447", "last_stocked_date": "Aug 30, 2009", "size": "15.5"},
{"name": "Margaret", "longitude": "-121.133253", "county": "Snohomish County", "last_stocked_amt": "160", "latitude": "47.837117", "alt": "4832", "last_stocked_date": "Aug 8, 2012", "size": "1.9"},
{"name": "Lost", "longitude": "-121.624633", "county": "Snohomish County", "last_stocked_amt": "100", "latitude": "47.806252", "alt": "2949", "last_stocked_date": "Oct 6, 2013", "size": "1.5"},
{"name": "Lime Twist", "longitude": "-121.244904", "county": "Snohomish County", "last_stocked_amt": "240", "latitude": "48.225280", "alt": "5109", "last_stocked_date": "Oct 19, 2013", "size": "4.7"},
{"name": "Ledge", "longitude": "-121.437901", "county": "Snohomish County", "last_stocked_amt": "80", "latitude": "48.223661", "alt": "4545", "last_stocked_date": "Aug 18, 2013", "size": "2.4"},
{"name": "Kelcema", "longitude": "-121.602504", "county": "Snohomish County", "last_stocked_amt": "2,000", "latitude": "48.113975", "alt": "3190", "last_stocked_date": "Aug 11, 2010", "size": "20.2"},
{"name": "Lime", "longitude": "-121.184484", "county": "Snohomish County", "last_stocked_amt": "400", "latitude": "48.184399", "alt": "5540", "last_stocked_date": "Sep 25, 2012", "size": "9.9"},
{"name": "Island - Little", "longitude": "-121.752761", "county": "Snohomish County", "last_stocked_amt": "210", "latitude": "48.043895", "alt": "3503", "last_stocked_date": "Sep 24, 2006", "size": "2.5"},
{"name": "Isabel", "longitude": "-121.590008", "county": "Snohomish County", "last_stocked_amt": "3,990", "latitude": "47.870826", "alt": "2851", "last_stocked_date": "Aug 24, 2012", "size": "167.6"},
{"name": "Indigo", "longitude": "-121.313431", "county": "Snohomish County", "last_stocked_amt": "1,000", "latitude": "48.220536", "alt": "4786", "last_stocked_date": "Sep 29, 2012", "size": "20.2"},
{"name": "Howard", "longitude": "-121.405337", "county": "Snohomish County", "last_stocked_amt": "100", "latitude": "47.849786", "alt": "4512", "last_stocked_date": "Sep 15, 2012", "size": "3.2"},
{"name": "Independence", "longitude": "-121.533032", "county": "Snohomish County", "last_stocked_amt": "100", "latitude": "48.122724", "alt": "3698", "last_stocked_date": "Oct 13, 2013", "size": "6.1"},
{"name": "Harry", "longitude": "-121.463969", "county": "Snohomish County", "last_stocked_amt": "50", "latitude": "47.847209", "alt": "3349", "last_stocked_date": "Sep 13, 2013", "size": "1.0"},
{"name": "Hemple", "longitude": "-121.754208", "county": "Snohomish County", "last_stocked_amt": "200", "latitude": "48.057443", "alt": "3099", "last_stocked_date": "Aug 3, 2012", "size": "5.8"},
{"name": "Gunn", "longitude": "-121.457273", "county": "Snohomish County", "last_stocked_amt": "160", "latitude": "47.815110", "alt": "4774", "last_stocked_date": "Sep 24, 2011", "size": "5.4"},
{"name": "Hall Peak", "longitude": "-121.538586", "county": "Snohomish County", "last_stocked_amt": "70", "latitude": "48.068433", "alt": "3429", "last_stocked_date": "Jul 21, 2012", "size": "0.9"},
{"name": "Halcyon", "longitude": "-121.709963", "county": "Snohomish County", "last_stocked_amt": "317", "latitude": "47.810466", "alt": "3279", "last_stocked_date": "Sep 22, 2012", "size": "5.4"},
{"name": "Grouse (Mud)", "longitude": "-121.125543", "county": "Snohomish County", "last_stocked_amt": "150", "latitude": "47.821673", "alt": "4720", "last_stocked_date": "Sep 1, 2013", "size": "2.2"},
{"name": "Gulch 1", "longitude": "-121.454114", "county": "Snohomish County", "last_stocked_amt": "120", "latitude": "47.939942", "alt": "3669", "last_stocked_date": "Sep 18, 2009", "size": "1.6"},
{"name": "Goblin", "longitude": "-121.317994", "county": "Snohomish County", "last_stocked_amt": "440", "latitude": "47.965821", "alt": "4269", "last_stocked_date": "Aug 12, 2007", "size": "32.8"},
{"name": "Gloria", "longitude": "-121.166868", "county": "Snohomish County", "last_stocked_amt": "460", "latitude": "48.288430", "alt": "5812", "last_stocked_date": "Aug 20, 2011", "size": "5.9"},
{"name": "Fourth Of July", "longitude": "-121.390759", "county": "Snohomish County", "last_stocked_amt": "90", "latitude": "47.806546", "alt": "4387", "last_stocked_date": "Aug 9, 2012", "size": "1.3"},
{"name": "Fortune Ponds 2", "longitude": "-121.184009", "county": "Snohomish County", "last_stocked_amt": "40", "latitude": "47.886282", "alt": "4678", "last_stocked_date": "Sep 29, 2010", "size": "0.9"},
{"name": "Fortune Ponds 1", "longitude": "-121.183515", "county": "Snohomish County", "last_stocked_amt": "60", "latitude": "47.884083", "alt": "4909", "last_stocked_date": "Sep 29, 2010", "size": "1.5"},
{"name": "Fern", "longitude": "-121.272829", "county": "Snohomish County", "last_stocked_amt": "150", "latitude": "48.120295", "alt": "5033", "last_stocked_date": "Oct 6, 2009", "size": "1.0"},
{"name": "Feldspar", "longitude": "-121.073024", "county": "Snohomish County", "last_stocked_amt": "100", "latitude": "48.265665", "alt": "4654", "last_stocked_date": "Sep 10, 2011", "size": "3.1"},
{"name": "Excelsior Creek Pot 1", "longitude": "-121.510549", "county": "Snohomish County", "last_stocked_amt": "50", "latitude": "47.885073", "alt": "4057", "last_stocked_date": "Oct 13, 2012", "size": "0.4"},
{"name": "Emerald", "longitude": "-121.252315", "county": "Snohomish County", "last_stocked_amt": "400", "latitude": "48.187988", "alt": "5140", "last_stocked_date": "Aug 11, 2007", "size": "11.9"},
{"name": "Evan", "longitude": "-121.687549", "county": "Snohomish County", "last_stocked_amt": "350", "latitude": "48.031100", "alt": "2766", "last_stocked_date": "Jul 27, 2013", "size": "10.9"},
{"name": "East Boardman", "longitude": "-121.663193", "county": "Snohomish County", "last_stocked_amt": "2,300", "latitude": "48.010446", "alt": "3365", "last_stocked_date": "Aug 1, 2006", "size": "21.9"},
{"name": "Eagle", "longitude": "-121.413636", "county": "Snohomish County", "last_stocked_amt": "170", "latitude": "47.795729", "alt": "3892", "last_stocked_date": "Aug 25, 2012", "size": "18.6"},
{"name": "Duffey 2", "longitude": "-121.688713", "county": "Snohomish County", "last_stocked_amt": "215", "latitude": "47.796274", "alt": "3179", "last_stocked_date": "Sep 27, 2013", "size": "3.3"},
{"name": "Duffey 1", "longitude": "-121.687035", "county": "Snohomish County", "last_stocked_amt": "130", "latitude": "47.800309", "alt": "2980", "last_stocked_date": "Sep 27, 2013", "size": "1.9"},
{"name": "Dow", "longitude": "-121.096466", "county": "Snohomish County", "last_stocked_amt": "180", "latitude": "47.801071", "alt": "4750", "last_stocked_date": "Aug 24, 2013", "size": "3.0"},
{"name": "Downey", "longitude": "-121.155896", "county": "Snohomish County", "last_stocked_amt": "1,250", "latitude": "48.289236", "alt": "5412", "last_stocked_date": "Aug 1, 2006", "size": "12.6"},
{"name": "Dollar Lakes Pot 2", "longitude": "-121.561227", "county": "Snohomish County", "last_stocked_amt": "30", "latitude": "47.856559", "alt": "4594", "last_stocked_date": "Aug 30, 2008", "size": "0.4"},
{"name": "Dollar Lakes Pot 1", "longitude": "-121.562406", "county": "Snohomish County", "last_stocked_amt": "40", "latitude": "47.857076", "alt": "4596", "last_stocked_date": "Sep 2, 2013", "size": "0.5"},
{"name": "Dollar - Lower", "longitude": "-121.558986", "county": "Snohomish County", "last_stocked_amt": "120", "latitude": "47.862342", "alt": "3868", "last_stocked_date": "Sep 16, 2012", "size": "1.8"},
{"name": "Dollar - Upper", "longitude": "-121.556935", "county": "Snohomish County", "last_stocked_amt": "340", "latitude": "47.860375", "alt": "3947", "last_stocked_date": "Sep 16, 2012", "size": "5.5"},
{"name": "Diamond", "longitude": "-121.244543", "county": "Snohomish County", "last_stocked_amt": "965", "latitude": "48.181921", "alt": "5265", "last_stocked_date": "Sep 21, 2010", "size": "9.5"},
{"name": "Dick", "longitude": "-121.471922", "county": "Snohomish County", "last_stocked_amt": "50", "latitude": "47.848387", "alt": "3355", "last_stocked_date": "Sep 13, 2013", "size": "1.0"},
{"name": "Deer Creek Pot 1", "longitude": "-121.549740", "county": "Snohomish County", "last_stocked_amt": "40", "latitude": "47.855037", "alt": "4352", "last_stocked_date": "Sep 4, 2008", "size": "0.9"},
{"name": "Devils", "longitude": "-121.550719", "county": "Snohomish County", "last_stocked_amt": "100", "latitude": "48.120329", "alt": "3789", "last_stocked_date": "Jul 23, 2001", "size": "3.2"},
{"name": "Coney", "longitude": "-121.251338", "county": "Snohomish County", "last_stocked_amt": "100", "latitude": "47.991504", "alt": "4275", "last_stocked_date": "Aug 17, 2013", "size": "2.9"},
{"name": "Cultus", "longitude": "-121.402204", "county": "Snohomish County", "last_stocked_amt": "90", "latitude": "47.978747", "alt": "4310", "last_stocked_date": "Aug 24, 2010", "size": "1.4"},
{"name": "Craig - Upper", "longitude": "-121.681978", "county": "Snohomish County", "last_stocked_amt": "35", "latitude": "48.181294", "alt": "4424", "last_stocked_date": "Oct 1, 2001", "size": "9.3"},
{"name": "Clear", "longitude": "-121.707718", "county": "Snohomish County", "last_stocked_amt": "410", "latitude": "48.019330", "alt": "3384", "last_stocked_date": "Oct 15, 2011", "size": "4.0"},
{"name": "Cavanaugh", "longitude": "-121.666473", "county": "Snohomish County", "last_stocked_amt": "665", "latitude": "47.786101", "alt": "1539", "last_stocked_date": "Oct 26, 2004", "size": "5.2"},
{"name": "Canyon", "longitude": "-120.995484", "county": "Snohomish County", "last_stocked_amt": "2,000", "latitude": "48.246694", "alt": "5611", "last_stocked_date": "Sep 15, 2009", "size": "21.9"},
{"name": "Camp", "longitude": "-121.225868", "county": "Snohomish County", "last_stocked_amt": "991", "latitude": "48.112124", "alt": "5706", "last_stocked_date": "Sep 22, 2010", "size": "10.4"},
{"name": "Canyon", "longitude": "-121.705465", "county": "Snohomish County", "last_stocked_amt": "250", "latitude": "48.110442", "alt": "2714", "last_stocked_date": "Oct 15, 2011", "size": "5.1"},
{"name": "Bowser", "longitude": "-121.259695", "county": "Snohomish County", "last_stocked_amt": "114", "latitude": "47.972700", "alt": "4875", "last_stocked_date": "Aug 13, 2007", "size": "1.2"},
{"name": "Cadet", "longitude": "-121.332455", "county": "Snohomish County", "last_stocked_amt": "160", "latitude": "48.021942", "alt": "5558", "last_stocked_date": "Sep 12, 2007", "size": "1.8"},
{"name": "Boardman", "longitude": "-121.690222", "county": "Snohomish County", "last_stocked_amt": "500", "latitude": "48.023794", "alt": "2989", "last_stocked_date": "Aug 13, 2006", "size": "45.0"},
{"name": "Blue - Little", "longitude": "-121.176983", "county": "Snohomish County", "last_stocked_amt": "120", "latitude": "47.985617", "alt": "5180", "last_stocked_date": "Aug 4, 2008", "size": "2.6"},
{"name": "Blue", "longitude": "-121.169280", "county": "Snohomish County", "last_stocked_amt": "666", "latitude": "47.990263", "alt": "5629", "last_stocked_date": "Aug 23, 2009", "size": "18.7"},
{"name": "Bear Tracks", "longitude": "-121.696562", "county": "Snohomish County", "last_stocked_amt": "40", "latitude": "48.187535", "alt": "3890", "last_stocked_date": "Oct 1, 2001", "size": "1.1"},
{"name": "Bear", "longitude": "-121.742891", "county": "Snohomish County", "last_stocked_amt": "500", "latitude": "48.058358", "alt": "2780", "last_stocked_date": "Aug 5, 2006", "size": "18.9"},
{"name": "Bath - Lower", "longitude": "-121.083826", "county": "Snohomish County", "last_stocked_amt": "311", "latitude": "48.243365", "alt": "5581", "last_stocked_date": "Aug 7, 2009", "size": "8.4"},
{"name": "Bandana", "longitude": "-121.771850", "county": "Snohomish County", "last_stocked_amt": "184", "latitude": "48.185880", "alt": "3221", "last_stocked_date": "Sep 19, 2012", "size": "2.3"},
{"name": "Whale", "longitude": "-121.291677", "county": "Skagit County", "last_stocked_amt": "2,000", "latitude": "48.446676", "alt": "4559", "last_stocked_date": "Aug 1, 2006", "size": "45.0"},
{"name": "Tupso", "longitude": "-121.461423", "county": "Skagit County", "last_stocked_amt": "290", "latitude": "48.390946", "alt": "4513", "last_stocked_date": "Sep 8, 2012", "size": "3.7"},
{"name": "Thunder 2", "longitude": "-121.635447", "county": "Skagit County", "last_stocked_amt": "40", "latitude": "48.587810", "alt": "3978", "last_stocked_date": "Aug 15, 2002", "size": "1.1"},
{"name": "Thunder 1", "longitude": "-121.635815", "county": "Skagit County", "last_stocked_amt": "40", "latitude": "48.590084", "alt": "4041", "last_stocked_date": "Aug 15, 2002", "size": "0.7"},
{"name": "Texas Pond", "longitude": "-121.586063", "county": "Skagit County", "last_stocked_amt": "260", "latitude": "48.367979", "alt": "1559", "last_stocked_date": "Sep 26, 2004", "size": "11.0"},
{"name": "Stilwell", "longitude": "-121.585951", "county": "Skagit County", "last_stocked_amt": "300", "latitude": "48.593270", "alt": "4136", "last_stocked_date": "Sep 26, 2010", "size": "3.8"},
{"name": "Splendor", "longitude": "-121.558541", "county": "Skagit County", "last_stocked_amt": "115", "latitude": "48.549659", "alt": "4587", "last_stocked_date": "Oct 1, 2012", "size": "2.7"},
{"name": "Stag", "longitude": "-121.283954", "county": "Skagit County", "last_stocked_amt": "475", "latitude": "48.384481", "alt": "4947", "last_stocked_date": "Aug 11, 2007", "size": "7.8"},
{"name": "Sonny Boy 2", "longitude": "-121.164839", "county": "Skagit County", "last_stocked_amt": "0", "latitude": "48.409733", "alt": "4746", "last_stocked_date": "Oct 9, 2009", "size": "2.5"},
{"name": "Skaro", "longitude": "-121.265072", "county": "Skagit County", "last_stocked_amt": "470", "latitude": "48.428058", "alt": "4500", "last_stocked_date": "Oct 8, 2011", "size": "13.9"},
{"name": "Snowking", "longitude": "-121.262112", "county": "Skagit County", "last_stocked_amt": "699", "latitude": "48.424850", "alt": "4464", "last_stocked_date": "Aug 29, 2009", "size": "25.6"},
{"name": "McGinnis Pot", "longitude": "-121.930729", "county": "Skagit County", "last_stocked_amt": "25", "latitude": "48.635471", "alt": "4622", "last_stocked_date": "Oct 11, 2003", "size": "1.1"},
{"name": "Shelf", "longitude": "-121.758397", "county": "Skagit County", "last_stocked_amt": "315", "latitude": "48.333768", "alt": "4026", "last_stocked_date": "Aug 30, 2010", "size": "4.1"},
{"name": "McGinnis", "longitude": "-121.936440", "county": "Skagit County", "last_stocked_amt": "99", "latitude": "48.637821", "alt": "4282", "last_stocked_date": "Oct 11, 2003", "size": "6.3"},
{"name": "Pear", "longitude": "-121.321298", "county": "Skagit County", "last_stocked_amt": "386", "latitude": "48.327832", "alt": "5231", "last_stocked_date": "Sep 29, 2011", "size": "7.4"},
{"name": "Myrtle", "longitude": "-121.814782", "county": "Skagit County", "last_stocked_amt": "620", "latitude": "48.320949", "alt": "3515", "last_stocked_date": "Jul 11, 2010", "size": "7.2"},
{"name": "Louise", "longitude": "-121.464552", "county": "Skagit County", "last_stocked_amt": "260", "latitude": "48.402383", "alt": "4827", "last_stocked_date": "Aug 17, 2013", "size": "5.3"},
{"name": "Long Gone Pot", "longitude": "-121.139980", "county": "Skagit County", "last_stocked_amt": "180", "latitude": "48.383075", "alt": "5547", "last_stocked_date": "Aug 12, 2006", "size": "1.3"},
{"name": "Long Gone", "longitude": "-121.129601", "county": "Skagit County", "last_stocked_amt": "1,000", "latitude": "48.382222", "alt": "4946", "last_stocked_date": "Sep 9, 2003", "size": "9.8"},
{"name": "La Rush", "longitude": "-121.277758", "county": "Skagit County", "last_stocked_amt": "150", "latitude": "48.503098", "alt": "3168", "last_stocked_date": "Oct 18, 2013", "size": "3.3"},
{"name": "Kawkawak", "longitude": "-121.310197", "county": "Skagit County", "last_stocked_amt": "310", "latitude": "48.336860", "alt": "5354", "last_stocked_date": "Aug 25, 2007", "size": "7.3"},
{"name": "Jordan - Upper", "longitude": "-121.336785", "county": "Skagit County", "last_stocked_amt": "1,350", "latitude": "48.452231", "alt": "4515", "last_stocked_date": "Aug 1, 2006", "size": "66.1"},
{"name": "Itswoot", "longitude": "-121.087869", "county": "Skagit County", "last_stocked_amt": "2,500", "latitude": "48.300711", "alt": "5020", "last_stocked_date": "Sep 15, 2009", "size": "36.9"},
{"name": "Jordan - Lower", "longitude": "-121.359016", "county": "Skagit County", "last_stocked_amt": "1,615", "latitude": "48.450940", "alt": "4037", "last_stocked_date": "Aug 1, 2006", "size": "52.2"},
{"name": "Hyas", "longitude": "-121.363503", "county": "Skagit County", "last_stocked_amt": "200", "latitude": "48.365042", "alt": "4348", "last_stocked_date": "Sep 8, 2002", "size": "2.1"},
{"name": "Horse", "longitude": "-121.213999", "county": "Skagit County", "last_stocked_amt": "185", "latitude": "48.322979", "alt": "4427", "last_stocked_date": "Sep 2, 2012", "size": "4.2"},
{"name": "Heart", "longitude": "-121.928175", "county": "Skagit County", "last_stocked_amt": "869", "latitude": "48.643586", "alt": "4052", "last_stocked_date": "Oct 8, 2011", "size": "14.1"},
{"name": "Halfcan", "longitude": "-121.097270", "county": "Skagit County", "last_stocked_amt": "56", "latitude": "48.376838", "alt": "4592", "last_stocked_date": "Aug 31, 2013", "size": "1.2"},
{"name": "Hawkins", "longitude": "-121.753606", "county": "Skagit County", "last_stocked_amt": "170", "latitude": "48.335805", "alt": "3552", "last_stocked_date": "Aug 30, 2010", "size": "2.1"},
{"name": "Granite 5", "longitude": "-121.301871", "county": "Skagit County", "last_stocked_amt": "100", "latitude": "48.469603", "alt": "5550", "last_stocked_date": "Aug 28, 2010", "size": "2.0"},
{"name": "Gee - Little", "longitude": "-121.812553", "county": "Skagit County", "last_stocked_amt": "140", "latitude": "48.419248", "alt": "4186", "last_stocked_date": "Aug 3, 2013", "size": "2.0"},
{"name": "Gee Point", "longitude": "-121.819949", "county": "Skagit County", "last_stocked_amt": "125", "latitude": "48.424465", "alt": "4106", "last_stocked_date": "Sep 19, 2013", "size": "3.0"},
{"name": "Fly", "longitude": "-121.296485", "county": "Skagit County", "last_stocked_amt": "50", "latitude": "48.479442", "alt": "4627", "last_stocked_date": "Jul 29, 2001", "size": "0.9"},
{"name": "Enjar", "longitude": "-121.302429", "county": "Skagit County", "last_stocked_amt": "1,200", "latitude": "48.424219", "alt": "4325", "last_stocked_date": "Aug 14, 2010", "size": "12.4"},
{"name": "Falls - Lower", "longitude": "-121.395772", "county": "Skagit County", "last_stocked_amt": "1,400", "latitude": "48.464307", "alt": "4034", "last_stocked_date": "Sep 9, 2003", "size": "59.8"},
{"name": "Edgar", "longitude": "-121.594787", "county": "Skagit County", "last_stocked_amt": "398", "latitude": "48.624791", "alt": "3267", "last_stocked_date": "Sep 28, 2004", "size": "2.9"},
{"name": "Cyclone Pot 1", "longitude": "-121.254386", "county": "Skagit County", "last_stocked_amt": "110", "latitude": "48.418837", "alt": "5429", "last_stocked_date": "Sep 24, 2006", "size": "0.9"},
{"name": "Cyclone Pot 2", "longitude": "-121.254680", "county": "Skagit County", "last_stocked_amt": "198", "latitude": "48.420469", "alt": "5468", "last_stocked_date": "Sep 28, 2012", "size": "3.5"},
{"name": "Cyclone", "longitude": "-121.258732", "county": "Skagit County", "last_stocked_amt": "997", "latitude": "48.415457", "alt": "5354", "last_stocked_date": "Sep 28, 2012", "size": "54.8"},
{"name": "Cub", "longitude": "-121.091229", "county": "Skagit County", "last_stocked_amt": "399", "latitude": "48.305635", "alt": "5343", "last_stocked_date": "Sep 21, 2011", "size": "10.1"},
{"name": "Clear", "longitude": "-121.595407", "county": "Skagit County", "last_stocked_amt": "1,000", "latitude": "48.595427", "alt": "4054", "last_stocked_date": "Aug 21, 2010", "size": "17.4"},
{"name": "Bear", "longitude": "-121.270145", "county": "Skagit County", "last_stocked_amt": "130", "latitude": "48.490203", "alt": "3709", "last_stocked_date": "Jul 29, 2013", "size": "1.4"},
{"name": "Bee", "longitude": "-121.414745", "county": "Skagit County", "last_stocked_amt": "100", "latitude": "48.389800", "alt": "4356", "last_stocked_date": "Sep 6, 2010", "size": "1.8"},
{"name": "Bald", "longitude": "-121.559133", "county": "Skagit County", "last_stocked_amt": "200", "latitude": "48.526528", "alt": "3780", "last_stocked_date": "Jul 13, 2001", "size": "2.8"},
{"name": "Basin", "longitude": "-121.281907", "county": "Skagit County", "last_stocked_amt": "30", "latitude": "48.486438", "alt": "4152", "last_stocked_date": "Jul 29, 2013", "size": "0.7"},
{"name": "Alp", "longitude": "-121.079249", "county": "Skagit County", "last_stocked_amt": "148", "latitude": "48.409912", "alt": "6344", "last_stocked_date": "Sep 11, 2013", "size": "4.2"},
{"name": "West", "longitude": "-121.943439", "county": "Pierce County", "last_stocked_amt": "360", "latitude": "46.818844", "alt": "4586", "last_stocked_date": "Aug 16, 2012", "size": "4.1"},
{"name": "Surprise", "longitude": "-121.860883", "county": "Pierce County", "last_stocked_amt": "240", "latitude": "47.023320", "alt": "4412", "last_stocked_date": "Oct 6, 2013", "size": "8.3"},
{"name": "Pitcher Mtn", "longitude": "-121.869270", "county": "Pierce County", "last_stocked_amt": "210", "latitude": "47.044642", "alt": "4703", "last_stocked_date": "Oct 11, 2012", "size": "4.2"},
{"name": "No See 'em Pot", "longitude": "-121.911433", "county": "Pierce County", "last_stocked_amt": "15", "latitude": "47.016461", "alt": "5186", "last_stocked_date": "Sep 29, 2011", "size": "0.6"},
{"name": "No See 'em", "longitude": "-121.906048", "county": "Pierce County", "last_stocked_amt": "50", "latitude": "47.020345", "alt": "4347", "last_stocked_date": "Sep 29, 2011", "size": "1.5"},
{"name": "Lily", "longitude": "-121.815256", "county": "Pierce County", "last_stocked_amt": "400", "latitude": "47.041996", "alt": "4086", "last_stocked_date": "Sep 18, 2011", "size": "9.1"},
{"name": "Hidden", "longitude": "-121.443772", "county": "Pierce County", "last_stocked_amt": "150", "latitude": "47.009275", "alt": "4181", "last_stocked_date": "Aug 15, 2010", "size": "3.0"},
{"name": "Helen", "longitude": "-121.946887", "county": "Pierce County", "last_stocked_amt": "300", "latitude": "46.832896", "alt": "4616", "last_stocked_date": "Sep 21, 2002", "size": "3.9"},
{"name": "George", "longitude": "-121.491015", "county": "Pierce County", "last_stocked_amt": "100", "latitude": "47.048763", "alt": "5463", "last_stocked_date": "Aug 3, 2012", "size": "1.6"},
{"name": "Elizabeth", "longitude": "-121.497065", "county": "Pierce County", "last_stocked_amt": "50", "latitude": "46.920785", "alt": "5842", "last_stocked_date": "Sep 13, 2012", "size": "2.6"},
{"name": "Forest", "longitude": "-121.510011", "county": "Pierce County", "last_stocked_amt": "200", "latitude": "47.089366", "alt": "3952", "last_stocked_date": "Jun 22, 2013", "size": "3.0"},
{"name": "Dalles 2", "longitude": "-121.550453", "county": "Pierce County", "last_stocked_amt": "60", "latitude": "47.083967", "alt": "4511", "last_stocked_date": "Aug 3, 2012", "size": "0.9"},
{"name": "East", "longitude": "-121.837856", "county": "Pierce County", "last_stocked_amt": "200", "latitude": "47.016890", "alt": "3958", "last_stocked_date": "Sep 29, 2011", "size": "3.5"},
{"name": "Dalles 1", "longitude": "-121.545185", "county": "Pierce County", "last_stocked_amt": "100", "latitude": "47.083473", "alt": "4544", "last_stocked_date": "Aug 3, 2012", "size": "1.4"},
{"name": "West Fork (Janelle) Lake", "longitude": "-122.321320", "county": "Lewis County", "last_stocked_amt": "250", "latitude": "46.658288", "alt": "3316", "last_stocked_date": "Aug 5, 2012", "size": "5.9"},
{"name": "Spud", "longitude": "-122.478912", "county": "Lewis County", "last_stocked_amt": "150", "latitude": "46.664007", "alt": "2985", "last_stocked_date": "Aug 29, 2012", "size": "2.2"},
{"name": "Newaukum Lake", "longitude": "-122.474702", "county": "Lewis County", "last_stocked_amt": "1,118", "latitude": "46.664601", "alt": "2983", "last_stocked_date": "Sep 20, 2011", "size": "16.8"},
{"name": "Goose", "longitude": "-122.327048", "county": "Lewis County", "last_stocked_amt": "527", "latitude": "46.668958", "alt": "2866", "last_stocked_date": "Jul 10, 2006", "size": "8.2"},
{"name": "Wright Mtn Pot", "longitude": "-121.474893", "county": "King County", "last_stocked_amt": "50", "latitude": "47.478461", "alt": "4229", "last_stocked_date": "Jul 26, 2009", "size": "0.8"},
{"name": "Wildcat Pothole - West", "longitude": "-121.478453", "county": "King County", "last_stocked_amt": "80", "latitude": "47.480627", "alt": "4071", "last_stocked_date": "Jul 18, 2013", "size": "0.6"},
{"name": "Windy", "longitude": "-121.502523", "county": "King County", "last_stocked_amt": "502", "latitude": "47.460391", "alt": "4191", "last_stocked_date": "Sep 14, 2013", "size": "5.3"},
{"name": "Wildcat - Upper", "longitude": "-121.492007", "county": "King County", "last_stocked_amt": "3,150", "latitude": "47.485454", "alt": "4222", "last_stocked_date": "Sep 10, 2008", "size": "51.5"},
{"name": "Wildcat - Lower", "longitude": "-121.479713", "county": "King County", "last_stocked_amt": "750", "latitude": "47.485218", "alt": "3904", "last_stocked_date": "Sep 5, 2012", "size": "17.9"},
{"name": "View", "longitude": "-121.283448", "county": "King County", "last_stocked_amt": "210", "latitude": "47.590632", "alt": "5269", "last_stocked_date": "Sep 15, 2012", "size": "2.2"},
{"name": "Upper Loch Katrine", "longitude": "-121.602158", "county": "King County", "last_stocked_amt": "760", "latitude": "47.620920", "alt": "4099", "last_stocked_date": "Oct 11, 2012", "size": "23.4"},
{"name": "Unnamed - L30960", "longitude": "-121.451958", "county": "King County", "last_stocked_amt": "50", "latitude": "47.379839", "alt": "3826", "last_stocked_date": "Sep 16, 2009", "size": "0.4"},
{"name": "Unnamed - L31363", "longitude": "-121.529122", "county": "King County", "last_stocked_amt": "300", "latitude": "47.668821", "alt": "3347", "last_stocked_date": "Sep 17, 2008", "size": "0.5"},
{"name": "Twilight", "longitude": "-121.433672", "county": "King County", "last_stocked_amt": "158", "latitude": "47.336111", "alt": "3580", "last_stocked_date": "Sep 10, 2011", "size": "2.3"},
{"name": "Tunnel Cr Pothole", "longitude": "-121.087720", "county": "King County", "last_stocked_amt": "100", "latitude": "47.725787", "alt": "4904", "last_stocked_date": "Aug 28, 2011", "size": "1.0"},
{"name": "Tumwater", "longitude": "-121.404179", "county": "King County", "last_stocked_amt": "100", "latitude": "47.631794", "alt": "3707", "last_stocked_date": "Aug 28, 2013", "size": "1.8"},
{"name": "Trout Lake", "longitude": "-121.313778", "county": "King County", "last_stocked_amt": "855", "latitude": "47.617116", "alt": "2034", "last_stocked_date": "Aug 25, 2005", "size": "14.9"},
{"name": "Trico", "longitude": "-121.123372", "county": "King County", "last_stocked_amt": "330", "latitude": "47.599670", "alt": "5669", "last_stocked_date": "Jul 25, 2008", "size": "5.1"},
{"name": "Tourmaline", "longitude": "-121.342187", "county": "King County", "last_stocked_amt": "110", "latitude": "47.570286", "alt": "4758", "last_stocked_date": "Oct 28, 2013", "size": "1.9"},
{"name": "Top Lake Pothole", "longitude": "-121.335440", "county": "King County", "last_stocked_amt": "40", "latitude": "47.655796", "alt": "4224", "last_stocked_date": "Sep 8, 2006", "size": "1.0"},
{"name": "Top Lake Pot - SE", "longitude": "-121.334827", "county": "King County", "last_stocked_amt": "30", "latitude": "47.650600", "alt": "4710", "last_stocked_date": "Sep 10, 2013", "size": "0.7"},
{"name": "Top", "longitude": "-121.338924", "county": "King County", "last_stocked_amt": "100", "latitude": "47.656550", "alt": "4547", "last_stocked_date": "Oct 10, 2013", "size": "3.6"},
{"name": "Thompson", "longitude": "-121.586106", "county": "King County", "last_stocked_amt": "2,988", "latitude": "47.455146", "alt": "3654", "last_stocked_date": "Oct 22, 2011", "size": "45.2"},
{"name": "Terrace - TB 1", "longitude": "-121.206885", "county": "King County", "last_stocked_amt": "200", "latitude": "47.618690", "alt": "5026", "last_stocked_date": "Aug 28, 2011", "size": "1.9"},
{"name": "Tank - South", "longitude": "-121.263850", "county": "King County", "last_stocked_amt": "60", "latitude": "47.561426", "alt": "5800", "last_stocked_date": "Aug 19, 2003", "size": "2.0"},
{"name": "Tank - North", "longitude": "-121.265020", "county": "King County", "last_stocked_amt": "300", "latitude": "47.565868", "alt": "5799", "last_stocked_date": "Sep 29, 2001", "size": "2.2"},
{"name": "Talus", "longitude": "-121.122298", "county": "King County", "last_stocked_amt": "175", "latitude": "47.619442", "alt": "5345", "last_stocked_date": "Aug 1, 2012", "size": "4.2"},
{"name": "Talapus", "longitude": "-121.518327", "county": "King County", "last_stocked_amt": "500", "latitude": "47.415077", "alt": "3264", "last_stocked_date": "Aug 15, 2013", "size": "17.4"},
{"name": "T'ahl (Tahl)", "longitude": "-121.264779", "county": "King County", "last_stocked_amt": "200", "latitude": "47.574163", "alt": "5684", "last_stocked_date": "Oct 5, 2009", "size": "4.1"},
{"name": "Source", "longitude": "-121.452070", "county": "King County", "last_stocked_amt": "50", "latitude": "47.455602", "alt": "3755", "last_stocked_date": "Jul 30, 2012", "size": "0.5"},
{"name": "Sunday Lake", "longitude": "-121.580534", "county": "King County", "last_stocked_amt": "300", "latitude": "47.626681", "alt": "1882", "last_stocked_date": "Oct 13, 2013", "size": "35.2"},
{"name": "Snow Lake Pot - Lower", "longitude": "-121.438580", "county": "King County", "last_stocked_amt": "140", "latitude": "47.464641", "alt": "4231", "last_stocked_date": "Sep 23, 2012", "size": "2.5"},
{"name": "Snowflake", "longitude": "-121.372483", "county": "King County", "last_stocked_amt": "80", "latitude": "47.542030", "alt": "4950", "last_stocked_date": "Sep 12, 2012", "size": "1.7"},
{"name": "Snoqualmie Lk Potholes - Upper", "longitude": "-121.398753", "county": "King County", "last_stocked_amt": "70", "latitude": "47.559752", "alt": "3551", "last_stocked_date": "Sep 19, 2011", "size": "3.3"},
{"name": "Snoqualmie Lk Potholes - Lower", "longitude": "-121.403551", "county": "King County", "last_stocked_amt": "174", "latitude": "47.559201", "alt": "3427", "last_stocked_date": "Sep 19, 2011", "size": "5.7"},
{"name": "Snow  Lake Pot - Upper", "longitude": "-121.434565", "county": "King County", "last_stocked_amt": "70", "latitude": "47.463692", "alt": "4507", "last_stocked_date": "Sep 23, 2012", "size": "1.0"},
{"name": "Smith Pothole - South", "longitude": "-121.433136", "county": "King County", "last_stocked_amt": "30", "latitude": "47.606703", "alt": "4670", "last_stocked_date": "Sep 13, 2011", "size": "0.4"},
{"name": "Smith", "longitude": "-121.432853", "county": "King County", "last_stocked_amt": "110", "latitude": "47.607740", "alt": "4633", "last_stocked_date": "Sep 13, 2011", "size": "2.6"},
{"name": "Skyline", "longitude": "-121.097867", "county": "King County", "last_stocked_amt": "50", "latitude": "47.756838", "alt": "5104", "last_stocked_date": "Oct 5, 2013", "size": "3.2"},
{"name": "Scout", "longitude": "-121.493869", "county": "King County", "last_stocked_amt": "230", "latitude": "47.353154", "alt": "3864", "last_stocked_date": "Jul 5, 2012", "size": "5.5"},
{"name": "Sawyer Creek Pot", "longitude": "-121.206785", "county": "King County", "last_stocked_amt": "50", "latitude": "47.661466", "alt": "4836", "last_stocked_date": "Sep 2, 2012", "size": "1.0"},
{"name": "Rock", "longitude": "-121.442925", "county": "King County", "last_stocked_amt": "150", "latitude": "47.545822", "alt": "3876", "last_stocked_date": "Aug 9, 2012", "size": "6.2"},
{"name": "Red Mtn Pothole", "longitude": "-121.394880", "county": "King County", "last_stocked_amt": "20", "latitude": "47.456195", "alt": "4846", "last_stocked_date": "Jul 3, 2007", "size": "0.7"},
{"name": "Rainbow", "longitude": "-121.536834", "county": "King County", "last_stocked_amt": "125", "latitude": "47.424743", "alt": "4264", "last_stocked_date": "Oct 16, 2013", "size": "6.0"},
{"name": "Pumpkinseed", "longitude": "-121.444350", "county": "King County", "last_stocked_amt": "100", "latitude": "47.531689", "alt": "4268", "last_stocked_date": "Aug 5, 2013", "size": "1.2"},
{"name": "Pratt River Ponds", "longitude": "-121.537127", "county": "King County", "last_stocked_amt": "50", "latitude": "47.468253", "alt": "1996", "last_stocked_date": "Jul 3, 2007", "size": "0.4"},
{"name": "Ptarmigan - Upper", "longitude": "-121.214640", "county": "King County", "last_stocked_amt": "500", "latitude": "47.627112", "alt": "4558", "last_stocked_date": "Sep 25, 2012", "size": "13.4"},
{"name": "Pratt - Little", "longitude": "-121.501010", "county": "King County", "last_stocked_amt": "120", "latitude": "47.432094", "alt": "4044", "last_stocked_date": "Aug 19, 2013", "size": "4.0"},
{"name": "Plug - Little", "longitude": "-121.153490", "county": "King County", "last_stocked_amt": "50", "latitude": "47.668818", "alt": "5308", "last_stocked_date": "Sep 5, 2012", "size": "0.8"},
{"name": "Pear Pothole", "longitude": "-121.355482", "county": "King County", "last_stocked_amt": "100", "latitude": "47.563477", "alt": "4230", "last_stocked_date": "Sep 12, 2006", "size": "1.4"},
{"name": "Overcoat", "longitude": "-121.302800", "county": "King County", "last_stocked_amt": "187", "latitude": "47.516992", "alt": "5760", "last_stocked_date": "Sep 9, 2006", "size": "11.4"},
{"name": "Nordrum Lake", "longitude": "-121.436801", "county": "King County", "last_stocked_amt": "708", "latitude": "47.555600", "alt": "3674", "last_stocked_date": "Aug 5, 2013", "size": "53.1"},
{"name": "No Name", "longitude": "-121.179339", "county": "King County", "last_stocked_amt": "289", "latitude": "47.601662", "alt": "5630", "last_stocked_date": "Sep 21, 2010", "size": "6.6"},
{"name": "Nine Hour", "longitude": "-121.516040", "county": "King County", "last_stocked_amt": "277", "latitude": "47.519199", "alt": "3950", "last_stocked_date": "Oct 2, 2011", "size": "5.4"},
{"name": "Nazanne", "longitude": "-121.291787", "county": "King County", "last_stocked_amt": "480", "latitude": "47.594532", "alt": "4709", "last_stocked_date": "Sep 12, 2009", "size": "9.1"},
{"name": "Myrtle - Little", "longitude": "-121.378328", "county": "King County", "last_stocked_amt": "200", "latitude": "47.559186", "alt": "4236", "last_stocked_date": "Sep 7, 2011", "size": "2.3"},
{"name": "My", "longitude": "-121.487285", "county": "King County", "last_stocked_amt": "50", "latitude": "47.449015", "alt": "3938", "last_stocked_date": "Jul 24, 2012", "size": "1.3"},
{"name": "Murphy Pothole - Upper", "longitude": "-121.127076", "county": "King County", "last_stocked_amt": "35", "latitude": "47.678567", "alt": "5669", "last_stocked_date": "Jul 23, 2013", "size": "0.4"},
{"name": "Mt Kent - Lower", "longitude": "-121.623559", "county": "King County", "last_stocked_amt": "50", "latitude": "47.391900", "alt": "4419", "last_stocked_date": "Sep 16, 2011", "size": "1.0"},
{"name": "Mt Kent - Upper", "longitude": "-121.623030", "county": "King County", "last_stocked_amt": "150", "latitude": "47.389699", "alt": "4522", "last_stocked_date": "Jul 22, 2013", "size": "1.9"},
{"name": "Mount Ferno Pothole 5", "longitude": "-121.237110", "county": "King County", "last_stocked_amt": "270", "latitude": "47.764397", "alt": "4396", "last_stocked_date": "Oct 1, 2010", "size": "4.4"},
{"name": "Morris", "longitude": "-121.158747", "county": "King County", "last_stocked_amt": "30", "latitude": "47.598098", "alt": "4542", "last_stocked_date": "Aug 9, 2007", "size": "0.7"},
{"name": "Mine Creek Pot - Upper", "longitude": "-121.635634", "county": "King County", "last_stocked_amt": "40", "latitude": "47.403050", "alt": "3864", "last_stocked_date": "Oct 10, 2012", "size": "0.9"},
{"name": "Mossback", "longitude": "-121.459230", "county": "King County", "last_stocked_amt": "80", "latitude": "47.626710", "alt": "3793", "last_stocked_date": "Sep 11, 2008", "size": "0.9"},
{"name": "Moira", "longitude": "-121.365085", "county": "King County", "last_stocked_amt": "110", "latitude": "47.560391", "alt": "3912", "last_stocked_date": "Aug 24, 2013", "size": "1.5"},
{"name": "Merlin", "longitude": "-121.394836", "county": "King County", "last_stocked_amt": "299", "latitude": "47.546479", "alt": "4000", "last_stocked_date": "Aug 2, 2013", "size": "5.5"},
{"name": "Melakwa - Upper", "longitude": "-121.470233", "county": "King County", "last_stocked_amt": "30", "latitude": "47.452624", "alt": "4506", "last_stocked_date": "Sep 21, 2012", "size": "1.7"},
{"name": "Melakwa - Lower", "longitude": "-121.468748", "county": "King County", "last_stocked_amt": "200", "latitude": "47.449681", "alt": "4504", "last_stocked_date": "Sep 21, 2012", "size": "7.1"},
{"name": "McCaffrey", "longitude": "-121.332594", "county": "King County", "last_stocked_amt": "80", "latitude": "47.608794", "alt": "3949", "last_stocked_date": "Jul 19, 2013", "size": "1.0"},
{"name": "Mason - Little", "longitude": "-121.557112", "county": "King County", "last_stocked_amt": "420", "latitude": "47.428491", "alt": "4254", "last_stocked_date": "Aug 26, 2012", "size": "4.9"},
{"name": "Maloney Meadow", "longitude": "-121.335042", "county": "King County", "last_stocked_amt": "40", "latitude": "47.666687", "alt": "4265", "last_stocked_date": "Sep 21, 2012", "size": "2.7"},
{"name": "Mason", "longitude": "-121.551019", "county": "King County", "last_stocked_amt": "425", "latitude": "47.423547", "alt": "4184", "last_stocked_date": "Oct 18, 2010", "size": "32.1"},
{"name": "Maloney 3", "longitude": "-121.342139", "county": "King County", "last_stocked_amt": "30", "latitude": "47.666597", "alt": "4473", "last_stocked_date": "Oct 11, 2012", "size": "1.0"},
{"name": "Maloney 2", "longitude": "-121.338582", "county": "King County", "last_stocked_amt": "30", "latitude": "47.670334", "alt": "4227", "last_stocked_date": "Oct 11, 2012", "size": "1.4"},
{"name": "Maloney 1", "longitude": "-121.335934", "county": "King County", "last_stocked_amt": "90", "latitude": "47.672397", "alt": "3950", "last_stocked_date": "Sep 13, 2009", "size": "0.5"},
{"name": "Malachite", "longitude": "-121.341270", "county": "King County", "last_stocked_amt": "2,000", "latitude": "47.608870", "alt": "4093", "last_stocked_date": "Sep 15, 2009", "size": "72.3"},
{"name": "Mac Peak Pot - Upper", "longitude": "-121.131583", "county": "King County", "last_stocked_amt": "100", "latitude": "47.625738", "alt": "6075", "last_stocked_date": "Sep 20, 2008", "size": "1.1"},
{"name": "Lunker", "longitude": "-121.437458", "county": "King County", "last_stocked_amt": "170", "latitude": "47.543076", "alt": "4040", "last_stocked_date": "Aug 11, 2012", "size": "3.1"},
{"name": "Lodge Pot", "longitude": "-121.432433", "county": "King County", "last_stocked_amt": "40", "latitude": "47.406958", "alt": "3153", "last_stocked_date": "Aug 25, 2009", "size": "0.7"},
{"name": "Loch Katrine Pot - Upper", "longitude": "-121.610631", "county": "King County", "last_stocked_amt": "50", "latitude": "47.623404", "alt": "4750", "last_stocked_date": "Oct 6, 2012", "size": "0.6"},
{"name": "Loch Katrine Pot - Lower", "longitude": "-121.604960", "county": "King County", "last_stocked_amt": "80", "latitude": "47.624726", "alt": "4272", "last_stocked_date": "Oct 2, 2004", "size": "0.7"},
{"name": "Lipsy", "longitude": "-121.467476", "county": "King County", "last_stocked_amt": "50", "latitude": "47.587246", "alt": "1713", "last_stocked_date": "Oct 18, 2013", "size": "0.4"},
{"name": "Lepul", "longitude": "-121.239050", "county": "King County", "last_stocked_amt": "50", "latitude": "47.583654", "alt": "5917", "last_stocked_date": "Sep 3, 2009", "size": "1.8"},
{"name": "Lennox Pothole", "longitude": "-121.473072", "county": "King County", "last_stocked_amt": "20", "latitude": "47.624237", "alt": "4681", "last_stocked_date": "Sep 24, 2009", "size": "0.4"},
{"name": "Le Fay", "longitude": "-121.406028", "county": "King County", "last_stocked_amt": "150", "latitude": "47.544619", "alt": "4072", "last_stocked_date": "Aug 2, 2013", "size": "5.9"},
{"name": "Lennox", "longitude": "-121.478652", "county": "King County", "last_stocked_amt": "119", "latitude": "47.633162", "alt": "4703", "last_stocked_date": "Sep 24, 2009", "size": "1.7"},
{"name": "La Bohn 3", "longitude": "-121.238018", "county": "King County", "last_stocked_amt": "518", "latitude": "47.566458", "alt": "5839", "last_stocked_date": "Sep 15, 2005", "size": "17.4"},
{"name": "Kulla Kulla", "longitude": "-121.549223", "county": "King County", "last_stocked_amt": "2,498", "latitude": "47.432159", "alt": "3769", "last_stocked_date": "Aug 12, 2013", "size": "58.6"},
{"name": "Jewel Pothole 3", "longitude": "-121.233920", "county": "King County", "last_stocked_amt": "40", "latitude": "47.653768", "alt": "4630", "last_stocked_date": "Aug 5, 2006", "size": "0.2"},
{"name": "Kulla - Little", "longitude": "-121.548472", "county": "King County", "last_stocked_amt": "120", "latitude": "47.428625", "alt": "3862", "last_stocked_date": "Aug 13, 2010", "size": "2.4"},
{"name": "June", "longitude": "-121.230910", "county": "King County", "last_stocked_amt": "180", "latitude": "47.629951", "alt": "5102", "last_stocked_date": "Oct 23, 2011", "size": "2.8"},
{"name": "Jewel - TB 2", "longitude": "-121.237374", "county": "King County", "last_stocked_amt": "118", "latitude": "47.653657", "alt": "4591", "last_stocked_date": "Aug 18, 2012", "size": "2.4"},
{"name": "Jeanie", "longitude": "-121.196464", "county": "King County", "last_stocked_amt": "110", "latitude": "47.664011", "alt": "4711", "last_stocked_date": "Sep 25, 2010", "size": "2.1"},
{"name": "Jewel - TB 1", "longitude": "-121.239589", "county": "King County", "last_stocked_amt": "90", "latitude": "47.656392", "alt": "4472", "last_stocked_date": "Aug 18, 2012", "size": "1.2"},
{"name": "Jade", "longitude": "-121.180501", "county": "King County", "last_stocked_amt": "1,125", "latitude": "47.597450", "alt": "5446", "last_stocked_date": "Sep 10, 2008", "size": "23.0"},
{"name": "Jakes", "longitude": "-121.232904", "county": "King County", "last_stocked_amt": "175", "latitude": "47.750716", "alt": "5070", "last_stocked_date": "Sep 21, 2012", "size": "7.6"},
{"name": "Island", "longitude": "-121.538069", "county": "King County", "last_stocked_amt": "1,340", "latitude": "47.420794", "alt": "4254", "last_stocked_date": "Sep 29, 2013", "size": "17.0"},
{"name": "Isabella", "longitude": "-121.608084", "county": "King County", "last_stocked_amt": "498", "latitude": "47.606077", "alt": "3514", "last_stocked_date": "Aug 24, 2011", "size": "12.3"},
{"name": "Ilswoot", "longitude": "-121.251749", "county": "King County", "last_stocked_amt": "3,000", "latitude": "47.584657", "alt": "4595", "last_stocked_date": "Sep 15, 2009", "size": "43.5"},
{"name": "Iceberg", "longitude": "-121.305991", "county": "King County", "last_stocked_amt": "480", "latitude": "47.500735", "alt": "4865", "last_stocked_date": "Sep 22, 2001", "size": "17.2"},
{"name": "Hummingbird", "longitude": "-121.232389", "county": "King County", "last_stocked_amt": "160", "latitude": "47.647767", "alt": "4993", "last_stocked_date": "Aug 14, 2012", "size": "2.8"},
{"name": "Horseshoe", "longitude": "-121.502338", "county": "King County", "last_stocked_amt": "390", "latitude": "47.503778", "alt": "4265", "last_stocked_date": "Sep 20, 2009", "size": "8.5"},
{"name": "Horseshoe", "longitude": "-121.423656", "county": "King County", "last_stocked_amt": "1,410", "latitude": "47.534190", "alt": "3906", "last_stocked_date": "Oct 16, 2011", "size": "22.8"},
{"name": "Honey", "longitude": "-121.567675", "county": "King County", "last_stocked_amt": "430", "latitude": "47.591061", "alt": "3244", "last_stocked_date": "Aug 31, 2010", "size": "9.5"},
{"name": "Holoman", "longitude": "-121.622482", "county": "King County", "last_stocked_amt": "220", "latitude": "47.769527", "alt": "3664", "last_stocked_date": "Sep 29, 2011", "size": "6.4"},
{"name": "Hi-Low", "longitude": "-121.443902", "county": "King County", "last_stocked_amt": "507", "latitude": "47.540519", "alt": "3943", "last_stocked_date": "Aug 11, 2012", "size": "4.9"},
{"name": "Hester - Little", "longitude": "-121.403086", "county": "King County", "last_stocked_amt": "340", "latitude": "47.507957", "alt": "4236", "last_stocked_date": "Sep 28, 2012", "size": "6.3"},
{"name": "Harris", "longitude": "-121.588464", "county": "King County", "last_stocked_amt": "150", "latitude": "47.377324", "alt": "3695", "last_stocked_date": "May 25, 2005", "size": "2.4"},
{"name": "Heart - Big", "longitude": "-121.324914", "county": "King County", "last_stocked_amt": "4,000", "latitude": "47.579003", "alt": "4549", "last_stocked_date": "Sep 15, 2009", "size": "175.9"},
{"name": "Hester Pothole", "longitude": "-121.400081", "county": "King County", "last_stocked_amt": "52", "latitude": "47.513928", "alt": "4355", "last_stocked_date": "Sep 28, 2006", "size": "1.1"},
{"name": "Hardscrabble - Upper", "longitude": "-121.341529", "county": "King County", "last_stocked_amt": "247", "latitude": "47.531792", "alt": "4589", "last_stocked_date": "Nov 2, 2013", "size": "6.7"},
{"name": "Hanks", "longitude": "-121.432353", "county": "King County", "last_stocked_amt": "90", "latitude": "47.295645", "alt": "3707", "last_stocked_date": "Sep 8, 2012", "size": "2.3"},
{"name": "Hamada", "longitude": "-121.128737", "county": "King County", "last_stocked_amt": "80", "latitude": "47.689517", "alt": "4266", "last_stocked_date": "Oct 7, 2011", "size": "0.8"},
{"name": "Grotto", "longitude": "-121.401184", "county": "King County", "last_stocked_amt": "60", "latitude": "47.764215", "alt": "3826", "last_stocked_date": "Oct 20, 2013", "size": "4.6"},
{"name": "Gravel", "longitude": "-121.369402", "county": "King County", "last_stocked_amt": "190", "latitude": "47.465117", "alt": "5123", "last_stocked_date": "Sep 23, 2012", "size": "8.0"},
{"name": "Goat", "longitude": "-121.420521", "county": "King County", "last_stocked_amt": "640", "latitude": "47.539185", "alt": "4100", "last_stocked_date": "Aug 24, 2012", "size": "20.5"},
{"name": "Georges", "longitude": "-121.335008", "county": "King County", "last_stocked_amt": "20", "latitude": "47.526801", "alt": "5035", "last_stocked_date": "Jul 29, 2006", "size": "0.4"},
{"name": "Garfield Mtn - Lower", "longitude": "-121.478371", "county": "King County", "last_stocked_amt": "200", "latitude": "47.554997", "alt": "3626", "last_stocked_date": "Aug 22, 2007", "size": "6.1"},
{"name": "Eric", "longitude": "-121.607077", "county": "King County", "last_stocked_amt": "30", "latitude": "47.775124", "alt": "5180", "last_stocked_date": "Oct 3, 2012", "size": "0.3"},
{"name": "Francis", "longitude": "-121.420718", "county": "King County", "last_stocked_amt": "1,999", "latitude": "47.636073", "alt": "4293", "last_stocked_date": "Aug 31, 2010", "size": "36.9"},
{"name": "Garcia Pond", "longitude": "-121.629567", "county": "King County", "last_stocked_amt": "100", "latitude": "47.426859", "alt": "1313", "last_stocked_date": "Jul 26, 2012", "size": "0.7"},
{"name": "Edds", "longitude": "-121.348210", "county": "King County", "last_stocked_amt": "498", "latitude": "47.471798", "alt": "4302", "last_stocked_date": "Sep 30, 2012", "size": "24.1"},
{"name": "Deer", "longitude": "-121.400585", "county": "King County", "last_stocked_amt": "499", "latitude": "47.570870", "alt": "3587", "last_stocked_date": "Sep 21, 2012", "size": "40.1"},
{"name": "Dream", "longitude": "-121.436794", "county": "King County", "last_stocked_amt": "1,250", "latitude": "47.600017", "alt": "3455", "last_stocked_date": "Oct 6, 2012", "size": "33.2"},
{"name": "Denny", "longitude": "-121.471401", "county": "King County", "last_stocked_amt": "718", "latitude": "47.422423", "alt": "4384", "last_stocked_date": "Sep 23, 2012", "size": "13.7"},
{"name": "David", "longitude": "-121.235572", "county": "King County", "last_stocked_amt": "148", "latitude": "47.633731", "alt": "4622", "last_stocked_date": "Aug 24, 2009", "size": "1.9"},
{"name": "Crystal 1", "longitude": "-121.468364", "county": "King County", "last_stocked_amt": "55", "latitude": "47.680308", "alt": "3478", "last_stocked_date": "Sep 23, 2006", "size": "3.2"},
{"name": "Crosby", "longitude": "-121.497075", "county": "King County", "last_stocked_amt": "70", "latitude": "47.722627", "alt": "4513", "last_stocked_date": "Sep 23, 2012", "size": "1.4"},
{"name": "Crystal", "longitude": "-121.482407", "county": "King County", "last_stocked_amt": "400", "latitude": "47.422233", "alt": "4744", "last_stocked_date": "Oct 4, 2012", "size": "5.9"},
{"name": "Crater", "longitude": "-121.536592", "county": "King County", "last_stocked_amt": "580", "latitude": "47.708343", "alt": "3504", "last_stocked_date": "Sep 5, 2013", "size": "16.8"},
{"name": "Crater Lake Pothole", "longitude": "-121.540894", "county": "King County", "last_stocked_amt": "29", "latitude": "47.698149", "alt": "2816", "last_stocked_date": "Sep 26, 2004", "size": "0.3"},
{"name": "Cougar", "longitude": "-121.528861", "county": "King County", "last_stocked_amt": "529", "latitude": "47.601629", "alt": "4125", "last_stocked_date": "Sep 6, 2009", "size": "18.5"},
{"name": "Copper Pothole - East", "longitude": "-121.326481", "county": "King County", "last_stocked_amt": "80", "latitude": "47.597421", "alt": "4428", "last_stocked_date": "Aug 26, 2012", "size": "1.4"},
{"name": "Cons", "longitude": "-121.421156", "county": "King County", "last_stocked_amt": "140", "latitude": "47.559163", "alt": "3871", "last_stocked_date": "Sep 19, 2011", "size": "1.4"},
{"name": "Crawford", "longitude": "-121.301521", "county": "King County", "last_stocked_amt": "740", "latitude": "47.549571", "alt": "5154", "last_stocked_date": "Sep 16, 2006", "size": "14.4"},
{"name": "Cleveland", "longitude": "-121.420586", "county": "King County", "last_stocked_amt": "70", "latitude": "47.687302", "alt": "3990", "last_stocked_date": "Oct 6, 2012", "size": "2.2"},
{"name": "Coney", "longitude": "-121.463724", "county": "King County", "last_stocked_amt": "1,085", "latitude": "47.666938", "alt": "5165", "last_stocked_date": "Aug 1, 2006", "size": "17.8"},
{"name": "Charlie Brown", "longitude": "-121.470204", "county": "King County", "last_stocked_amt": "120", "latitude": "47.557683", "alt": "4388", "last_stocked_date": "Aug 24, 2011", "size": "1.8"},
{"name": "Charlie - South (aka TB 3)", "longitude": "-121.365562", "county": "King County", "last_stocked_amt": "229", "latitude": "47.583509", "alt": "3963", "last_stocked_date": "Sep 6, 2011", "size": "3.4"},
{"name": "Charlie - North", "longitude": "-121.369506", "county": "King County", "last_stocked_amt": "160", "latitude": "47.588629", "alt": "3960", "last_stocked_date": "Sep 6, 2011", "size": "2.4"},
{"name": "Caroline", "longitude": "-121.506785", "county": "King County", "last_stocked_amt": "1,250", "latitude": "47.487741", "alt": "4734", "last_stocked_date": "Aug 6, 2013", "size": "55.8"},
{"name": "Cecils", "longitude": "-121.351109", "county": "King County", "last_stocked_amt": "120", "latitude": "47.570327", "alt": "4154", "last_stocked_date": "Jul 30, 2013", "size": "4.9"},
{"name": "Cad", "longitude": "-121.478162", "county": "King County", "last_stocked_amt": "200", "latitude": "47.424547", "alt": "4312", "last_stocked_date": "Sep 23, 2000", "size": "1.1"},
{"name": "Butterfly", "longitude": "-121.132898", "county": "King County", "last_stocked_amt": "100", "latitude": "47.636646", "alt": "5269", "last_stocked_date": "Aug 25, 2012", "size": "2.0"},
{"name": "Charlie - Middle", "longitude": "-121.366047", "county": "King County", "last_stocked_amt": "60", "latitude": "47.586462", "alt": "3957", "last_stocked_date": "Sep 6, 2011", "size": "0.8"},
{"name": "Boner", "longitude": "-121.485205", "county": "King County", "last_stocked_amt": "100", "latitude": "47.714902", "alt": "4834", "last_stocked_date": "Sep 23, 2012", "size": "2.4"},
{"name": "Buried Hatchet", "longitude": "-121.522846", "county": "King County", "last_stocked_amt": "80", "latitude": "47.504900", "alt": "5230", "last_stocked_date": "Sep 2, 2012", "size": "0.7"},
{"name": "Blethen Pond - West", "longitude": "-121.613382", "county": "King County", "last_stocked_amt": "80", "latitude": "47.567907", "alt": "3714", "last_stocked_date": "Jul 21, 2013", "size": "0.5"},
{"name": "Blethen - Upper", "longitude": "-121.610710", "county": "King County", "last_stocked_amt": "200", "latitude": "47.568090", "alt": "3675", "last_stocked_date": "Nov 1, 2012", "size": "3.0"},
{"name": "Blisses Pond", "longitude": "-121.667385", "county": "King County", "last_stocked_amt": "40", "latitude": "47.753141", "alt": "1509", "last_stocked_date": "Jun 28, 2008", "size": "0.3"},
{"name": "Blethen Pot", "longitude": "-121.592734", "county": "King County", "last_stocked_amt": "50", "latitude": "47.568167", "alt": "3636", "last_stocked_date": "Sep 16, 2013", "size": "1.5"},
{"name": "Blethen - Lower", "longitude": "-121.606111", "county": "King County", "last_stocked_amt": "500", "latitude": "47.572801", "alt": "3190", "last_stocked_date": "Sep 8, 2012", "size": "7.9"},
{"name": "Blazer", "longitude": "-121.535634", "county": "King County", "last_stocked_amt": "650", "latitude": "47.427812", "alt": "4064", "last_stocked_date": "Aug 1, 2012", "size": "6.2"},
{"name": "Beulah", "longitude": "-121.255304", "county": "King County", "last_stocked_amt": "90", "latitude": "47.759740", "alt": "4267", "last_stocked_date": "Sep 11, 2001", "size": "1.2"},
{"name": "Bear Pot 6 (Upper)", "longitude": "-121.384774", "county": "King County", "last_stocked_amt": "19", "latitude": "47.564432", "alt": "4382", "last_stocked_date": "Jul 28, 2007", "size": "0.6"},
{"name": "Bear 1", "longitude": "-121.485874", "county": "King County", "last_stocked_amt": "180", "latitude": "47.647976", "alt": "4679", "last_stocked_date": "Sep 20, 2010", "size": "2.5"},
{"name": "Anderson", "longitude": "-121.484030", "county": "King County", "last_stocked_amt": "210", "latitude": "47.601706", "alt": "4188", "last_stocked_date": "Aug 10, 2008", "size": "2.1"},
{"name": "Angeline", "longitude": "-121.307143", "county": "King County", "last_stocked_amt": "1,998", "latitude": "47.570765", "alt": "4613", "last_stocked_date": "Aug 27, 2001", "size": "183.7"},
{"name": "Lost Lake", "longitude": "-121.067065", "county": "Yakima County", "last_stocked_amt": "1,275", "latitude": "46.639255", "alt": "3755", "last_stocked_date": "May 26, 2006", "size": "5.9"},
{"name": "Thunder Mtn 1", "longitude": "-121.123980", "county": "Chelan County", "last_stocked_amt": "100", "latitude": "47.659519", "alt": "6427", "last_stocked_date": "Sep 20, 2010", "size": "2.3"},
{"name": "Lynne", "longitude": "-121.017663", "county": "Yakima County", "last_stocked_amt": "170", "latitude": "46.728217", "alt": "4626", "last_stocked_date": "May 26, 2006", "size": "1.4"},
{"name": "Long", "longitude": "-121.064138", "county": "Yakima County", "last_stocked_amt": "1,088", "latitude": "46.622328", "alt": "4319", "last_stocked_date": "May 17, 2006", "size": "1.7"},
{"name": "Lightning", "longitude": "-121.143269", "county": "Yakima County", "last_stocked_amt": "330", "latitude": "46.676526", "alt": "3398", "last_stocked_date": "May 25, 2005", "size": "1.6"},
{"name": "Lily", "longitude": "-121.354119", "county": "Yakima County", "last_stocked_amt": "500", "latitude": "46.837641", "alt": "3867", "last_stocked_date": "Sep 28, 2011", "size": "5.3"},
{"name": "Fish", "longitude": "-121.119997", "county": "Yakima County", "last_stocked_amt": "165", "latitude": "46.618227", "alt": "3348", "last_stocked_date": "Aug 31, 2011", "size": "1.7"},
{"name": "Ginnette", "longitude": "-121.375476", "county": "Yakima County", "last_stocked_amt": "160", "latitude": "46.627460", "alt": "5422", "last_stocked_date": "Aug 9, 2010", "size": "0.8"},
{"name": "Angel", "longitude": "-121.055792", "county": "Yakima County", "last_stocked_amt": "174", "latitude": "46.785108", "alt": "3638", "last_stocked_date": "Jun 16, 2004", "size": "0.7"},
{"name": "Sub Zero", "longitude": "-120.881547", "county": "Whatcom County", "last_stocked_amt": "0", "latitude": "48.962391", "alt": "6636", "last_stocked_date": "Sep 23, 2012", "size": "9.6"},
{"name": "Joker", "longitude": "-120.889793", "county": "Whatcom County", "last_stocked_amt": "150", "latitude": "48.954821", "alt": "6190", "last_stocked_date": "Sep 22, 2012", "size": "3.0"},
{"name": "Jerry No. 1", "longitude": "-120.919749", "county": "Whatcom County", "last_stocked_amt": "3,000", "latitude": "48.760643", "alt": "5904", "last_stocked_date": "Sep 9, 2003", "size": "26.9"},
{"name": "Freezeout", "longitude": "-120.904201", "county": "Whatcom County", "last_stocked_amt": "345", "latitude": "48.926145", "alt": "5710", "last_stocked_date": "Sep 2, 2009", "size": "6.1"},
{"name": "Wing", "longitude": "-120.806180", "county": "Skagit County", "last_stocked_amt": "500", "latitude": "48.517609", "alt": "6909", "last_stocked_date": "Oct 11, 2011", "size": "13.6"},
{"name": "Kitling", "longitude": "-120.858997", "county": "Skagit County", "last_stocked_amt": "170", "latitude": "48.597700", "alt": "5794", "last_stocked_date": "Oct 21, 2013", "size": "1.5"},
{"name": "Lewis", "longitude": "-120.784168", "county": "Skagit County", "last_stocked_amt": "810", "latitude": "48.513576", "alt": "5707", "last_stocked_date": "Aug 24, 2005", "size": "10.6"},
{"name": "Cabinet", "longitude": "-120.872130", "county": "Skagit County", "last_stocked_amt": "100", "latitude": "48.609122", "alt": "5391", "last_stocked_date": "Sep 24, 2006", "size": "2.8"},
{"name": "Fisher Peak", "longitude": "-120.810809", "county": "Skagit County", "last_stocked_amt": "140", "latitude": "48.552629", "alt": "5438", "last_stocked_date": "Sep 22, 2012", "size": "1.4"},
{"name": "Williams", "longitude": "-120.516664", "county": "Okanogan County", "last_stocked_amt": "350", "latitude": "48.371805", "alt": "6495", "last_stocked_date": "Jan 1, 2006", "size": "7.2"},
{"name": "Varden", "longitude": "-120.539389", "county": "Okanogan County", "last_stocked_amt": "164", "latitude": "48.559215", "alt": "6191", "last_stocked_date": "Sep 20, 2010", "size": "4.4"},
{"name": "Tiffany", "longitude": "-119.939589", "county": "Okanogan County", "last_stocked_amt": "300", "latitude": "48.689353", "alt": "6543", "last_stocked_date": "Sep 21, 2012", "size": "17.9"},
{"name": "Sunrise", "longitude": "-120.354506", "county": "Okanogan County", "last_stocked_amt": "200", "latitude": "48.160095", "alt": "7233", "last_stocked_date": "Jan 1, 2010", "size": "8.8"},
{"name": "Tiffany - Little", "longitude": "-119.937001", "county": "Okanogan County", "last_stocked_amt": "400", "latitude": "48.675605", "alt": "7432", "last_stocked_date": "Sep 21, 2012", "size": "3.5"},
{"name": "Summit Lake", "longitude": "-119.340550", "county": "Okanogan County", "last_stocked_amt": "4,000", "latitude": "48.886022", "alt": "4256", "last_stocked_date": "Jan 1, 2010", "size": "16.1"},
{"name": "Snowshoe - East", "longitude": "-120.464861", "county": "Okanogan County", "last_stocked_amt": "50", "latitude": "48.316860", "alt": "6791", "last_stocked_date": "Sep 26, 2011", "size": "1.2"},
{"name": "South Creek Butte", "longitude": "-120.619313", "county": "Okanogan County", "last_stocked_amt": "149", "latitude": "48.439381", "alt": "6773", "last_stocked_date": "Oct 6, 2012", "size": "2.7"},
{"name": "Snowshoe - West", "longitude": "-120.473630", "county": "Okanogan County", "last_stocked_amt": "150", "latitude": "48.313484", "alt": "6313", "last_stocked_date": "Sep 26, 2011", "size": "2.7"},
{"name": "Smith", "longitude": "-119.917853", "county": "Okanogan County", "last_stocked_amt": "290", "latitude": "48.976882", "alt": "6985", "last_stocked_date": "Oct 11, 2012", "size": "3.1"},
{"name": "Slate", "longitude": "-120.465899", "county": "Okanogan County", "last_stocked_amt": "150", "latitude": "48.443898", "alt": "6667", "last_stocked_date": "Oct 6, 2012", "size": "6.4"},
{"name": "Silver", "longitude": "-120.451094", "county": "Okanogan County", "last_stocked_amt": "300", "latitude": "48.300172", "alt": "5833", "last_stocked_date": "Sep 11, 2009", "size": "2.7"},
{"name": "Scheelite", "longitude": "-120.067563", "county": "Okanogan County", "last_stocked_amt": "200", "latitude": "48.980205", "alt": "7348", "last_stocked_date": "Sep 26, 2009", "size": "3.1"},
{"name": "Rampart", "longitude": "-120.446381", "county": "Okanogan County", "last_stocked_amt": "515", "latitude": "48.821968", "alt": "6907", "last_stocked_date": "Sep 29, 2012", "size": "8.2"},
{"name": "Quartz", "longitude": "-120.412345", "county": "Okanogan County", "last_stocked_amt": "295", "latitude": "48.957327", "alt": "6746", "last_stocked_date": "Aug 31, 2012", "size": "7.1"},
{"name": "Roger", "longitude": "-119.968745", "county": "Okanogan County", "last_stocked_amt": "300", "latitude": "48.650034", "alt": "5864", "last_stocked_date": "Sep 21, 2012", "size": "5.8"},
{"name": "Oval Peak - North", "longitude": "-120.413780", "county": "Okanogan County", "last_stocked_amt": "100", "latitude": "48.291337", "alt": "7153", "last_stocked_date": "Sep 13, 2003", "size": "1.5"},
{"name": "Oval - West", "longitude": "-120.460371", "county": "Okanogan County", "last_stocked_amt": "1,738", "latitude": "48.276627", "alt": "6865", "last_stocked_date": "Sep 3, 2009", "size": "17.1"},
{"name": "Nugget - Lowe", "longitude": "-120.742325", "county": "Okanogan County", "last_stocked_amt": "120", "latitude": "48.611149", "alt": "5873", "last_stocked_date": "Sep 21, 2010", "size": "4.2"},
{"name": "Nugget - Upper", "longitude": "-120.739279", "county": "Okanogan County", "last_stocked_amt": "130", "latitude": "48.610148", "alt": "5878", "last_stocked_date": "Sep 21, 2010", "size": "3.6"},
{"name": "Meadow", "longitude": "-120.119546", "county": "Okanogan County", "last_stocked_amt": "386", "latitude": "48.857498", "alt": "6388", "last_stocked_date": "Sep 13, 2012", "size": "2.3"},
{"name": "Lamont", "longitude": "-120.524885", "county": "Okanogan County", "last_stocked_amt": "291", "latitude": "48.497557", "alt": "6632", "last_stocked_date": "Sep 26, 2013", "size": "7.0"},
{"name": "Frosty", "longitude": "-120.745147", "county": "Okanogan County", "last_stocked_amt": "180", "latitude": "48.961113", "alt": "5356", "last_stocked_date": "Sep 6, 2012", "size": "3.3"},
{"name": "Freds", "longitude": "-120.598244", "county": "Okanogan County", "last_stocked_amt": "327", "latitude": "48.822876", "alt": "6507", "last_stocked_date": "Sep 12, 2009", "size": "5.2"},
{"name": "Hopkins", "longitude": "-120.767094", "county": "Okanogan County", "last_stocked_amt": "784", "latitude": "48.924861", "alt": "6186", "last_stocked_date": "Oct 1, 2011", "size": "5.5"},
{"name": "Fox - Upper", "longitude": "-120.302167", "county": "Okanogan County", "last_stocked_amt": "75", "latitude": "48.863926", "alt": "6794", "last_stocked_date": "Sep 23, 2012", "size": "4.7"},
{"name": "Eagle - Upper", "longitude": "-120.346815", "county": "Okanogan County", "last_stocked_amt": "1,600", "latitude": "48.213553", "alt": "7115", "last_stocked_date": "Jan 1, 2006", "size": "15.1"},
{"name": "Crystal", "longitude": "-120.249545", "county": "Okanogan County", "last_stocked_amt": "144", "latitude": "48.810095", "alt": "7118", "last_stocked_date": "Aug 18, 2013", "size": "3.9"},
{"name": "Fawn", "longitude": "-120.291474", "county": "Okanogan County", "last_stocked_amt": "413", "latitude": "48.890798", "alt": "6235", "last_stocked_date": "Sep 23, 2011", "size": "5.9"},
{"name": "Doris", "longitude": "-120.591636", "county": "Okanogan County", "last_stocked_amt": "200", "latitude": "48.822247", "alt": "6991", "last_stocked_date": "Sep 14, 2013", "size": "3.2"},
{"name": "Crescent - Upper", "longitude": "-120.602539", "county": "Okanogan County", "last_stocked_amt": "100", "latitude": "48.448212", "alt": "5509", "last_stocked_date": "Jan 1, 2006", "size": "1.0"},
{"name": "Crater", "longitude": "-120.332510", "county": "Okanogan County", "last_stocked_amt": "400", "latitude": "48.227950", "alt": "6869", "last_stocked_date": "Jan 1, 2006", "size": "10.8"},
{"name": "Corral", "longitude": "-120.357967", "county": "Okanogan County", "last_stocked_amt": "350", "latitude": "48.919146", "alt": "7157", "last_stocked_date": "Jan 1, 2001", "size": "10.6"},
{"name": "Buck Lake", "longitude": "-120.200825", "county": "Okanogan County", "last_stocked_amt": "5,000", "latitude": "48.604092", "alt": "3251", "last_stocked_date": "Jan 1, 2010", "size": "6.7"},
{"name": "Beaver", "longitude": "-119.866810", "county": "Okanogan County", "last_stocked_amt": "1,200", "latitude": "48.465466", "alt": "5512", "last_stocked_date": "Jan 1, 2001", "size": "8.8"},
{"name": "Black Pine Lake", "longitude": "-120.277515", "county": "Okanogan County", "last_stocked_amt": "3,000", "latitude": "48.311182", "alt": "4015", "last_stocked_date": "Jan 1, 2004", "size": "13.4"},
{"name": "Airview", "longitude": "-120.210599", "county": "Okanogan County", "last_stocked_amt": "258", "latitude": "48.928944", "alt": "7239", "last_stocked_date": "Aug 30, 2013", "size": "4.5"},
{"name": "Abernathy", "longitude": "-120.510432", "county": "Okanogan County", "last_stocked_amt": "100", "latitude": "48.482868", "alt": "6362", "last_stocked_date": "Sep 17, 2011", "size": "3.2"},
{"name": "Unnamed - L5389", "longitude": "-121.090728", "county": "Kittitas County", "last_stocked_amt": "40", "latitude": "47.575097", "alt": "6467", "last_stocked_date": "Sep 15, 2000", "size": "0.5"},
{"name": "Unnamed - L5388", "longitude": "-121.091774", "county": "Kittitas County", "last_stocked_amt": "60", "latitude": "47.577025", "alt": "6552", "last_stocked_date": "Oct 4, 2009", "size": "1.1"},
{"name": "Twin Lks Upper", "longitude": "-121.442189", "county": "Kittitas County", "last_stocked_amt": "100", "latitude": "47.362306", "alt": "3113", "last_stocked_date": "Aug 28, 2011", "size": "1.3"},
{"name": "Twin Lks Lower", "longitude": "-121.437323", "county": "Kittitas County", "last_stocked_amt": "200", "latitude": "47.361651", "alt": "3104", "last_stocked_date": "Aug 11, 2013", "size": "4.1"},
{"name": "Twin", "longitude": "-121.338312", "county": "Kittitas County", "last_stocked_amt": "140", "latitude": "47.389208", "alt": "4674", "last_stocked_date": "Aug 11, 2013", "size": "1.5"},
{"name": "Tinkham Peak Pot", "longitude": "-121.449952", "county": "Kittitas County", "last_stocked_amt": "132", "latitude": "47.350401", "alt": "4577", "last_stocked_date": "Jul 29, 2010", "size": "0.9"},
{"name": "Tinkham Peak", "longitude": "-121.450465", "county": "Kittitas County", "last_stocked_amt": "60", "latitude": "47.349874", "alt": "4590", "last_stocked_date": "Oct 14, 2010", "size": "0.1"},
{"name": "Taneum", "longitude": "-121.042957", "county": "Kittitas County", "last_stocked_amt": "330", "latitude": "47.061010", "alt": "5271", "last_stocked_date": "Oct 21, 2013", "size": "3.2"},
{"name": "Thorp", "longitude": "-121.199701", "county": "Kittitas County", "last_stocked_amt": "210", "latitude": "47.366399", "alt": "4674", "last_stocked_date": "Aug 22, 2013", "size": "9.1"},
{"name": "Terence", "longitude": "-121.089425", "county": "Kittitas County", "last_stocked_amt": "855", "latitude": "47.456818", "alt": "5544", "last_stocked_date": "Sep 29, 2012", "size": "13.5"},
{"name": "Talus Slope", "longitude": "-121.436941", "county": "Kittitas County", "last_stocked_amt": "100", "latitude": "47.310013", "alt": "4147", "last_stocked_date": "Aug 21, 2010", "size": "1.0"},
{"name": "Swan", "longitude": "-121.320324", "county": "Kittitas County", "last_stocked_amt": "590", "latitude": "47.375515", "alt": "4030", "last_stocked_date": "Sep 6, 2013", "size": "7.3"},
{"name": "Summit Chief", "longitude": "-121.255681", "county": "Kittitas County", "last_stocked_amt": "319", "latitude": "47.512610", "alt": "5350", "last_stocked_date": "Sep 11, 2009", "size": "3.8"},
{"name": "Stonesthrow", "longitude": "-121.328002", "county": "Kittitas County", "last_stocked_amt": "100", "latitude": "47.379253", "alt": "4422", "last_stocked_date": "Aug 29, 2012", "size": "1.5"},
{"name": "Squaw Pd Upper", "longitude": "-121.115668", "county": "Kittitas County", "last_stocked_amt": "50", "latitude": "47.531125", "alt": "5358", "last_stocked_date": "Sep 29, 2012", "size": "1.0"},
{"name": "Squaw", "longitude": "-121.113991", "county": "Kittitas County", "last_stocked_amt": "900", "latitude": "47.534773", "alt": "4870", "last_stocked_date": "Jul 27, 2013", "size": "8.8"},
{"name": "Rock Rabbit - Upper", "longitude": "-121.323724", "county": "Kittitas County", "last_stocked_amt": "270", "latitude": "47.371024", "alt": "4199", "last_stocked_date": "Sep 20, 2013", "size": "4.2"},
{"name": "Rock Rabbit - Lower", "longitude": "-121.326880", "county": "Kittitas County", "last_stocked_amt": "100", "latitude": "47.371860", "alt": "4143", "last_stocked_date": "Sep 14, 2013", "size": "1.2"},
{"name": "Ridge", "longitude": "-121.367189", "county": "Kittitas County", "last_stocked_amt": "90", "latitude": "47.461335", "alt": "5270", "last_stocked_date": "Jul 25, 2013", "size": "2.0"},
{"name": "Ridge", "longitude": "-121.330629", "county": "Kittitas County", "last_stocked_amt": "80", "latitude": "47.378405", "alt": "4461", "last_stocked_date": "Aug 27, 2013", "size": "0.7"},
{"name": "Rampart 1", "longitude": "-121.340449", "county": "Kittitas County", "last_stocked_amt": "300", "latitude": "47.415703", "alt": "5083", "last_stocked_date": "Aug 27, 2011", "size": "6.3"},
{"name": "Rampart 2", "longitude": "-121.339380", "county": "Kittitas County", "last_stocked_amt": "200", "latitude": "47.419297", "alt": "5082", "last_stocked_date": "Aug 27, 2011", "size": "3.8"},
{"name": "Rachel", "longitude": "-121.330965", "county": "Kittitas County", "last_stocked_amt": "2,260", "latitude": "47.420569", "alt": "4664", "last_stocked_date": "Aug 22, 2000", "size": "25.1"},
{"name": "Peggys Pond", "longitude": "-121.141683", "county": "Kittitas County", "last_stocked_amt": "300", "latitude": "47.556134", "alt": "5587", "last_stocked_date": "Sep 3, 2011", "size": "4.3"},
{"name": "Portage", "longitude": "-121.208708", "county": "Kittitas County", "last_stocked_amt": "73", "latitude": "47.356222", "alt": "4635", "last_stocked_date": "Sep 16, 2013", "size": "1.7"},
{"name": "Park - Upper", "longitude": "-121.298946", "county": "Kittitas County", "last_stocked_amt": "100", "latitude": "47.449126", "alt": "4709", "last_stocked_date": "Sep 7, 2010", "size": "10.3"},
{"name": "Park - Lower", "longitude": "-121.291352", "county": "Kittitas County", "last_stocked_amt": "90", "latitude": "47.448234", "alt": "4506", "last_stocked_date": "Sep 7, 2010", "size": "9.4"},
{"name": "Opal", "longitude": "-121.076937", "county": "Kittitas County", "last_stocked_amt": "70", "latitude": "47.453994", "alt": "6001", "last_stocked_date": "Aug 23, 2013", "size": "1.0"},
{"name": "Mirror", "longitude": "-121.439429", "county": "Kittitas County", "last_stocked_amt": "745", "latitude": "47.345830", "alt": "4199", "last_stocked_date": "Oct 11, 2013", "size": "28.3"},
{"name": "Margaret", "longitude": "-121.335476", "county": "Kittitas County", "last_stocked_amt": "330", "latitude": "47.381085", "alt": "4789", "last_stocked_date": "Aug 29, 2011", "size": "4.1"},
{"name": "Lillian", "longitude": "-121.340309", "county": "Kittitas County", "last_stocked_amt": "550", "latitude": "47.400701", "alt": "4784", "last_stocked_date": "Aug 28, 2013", "size": "12.5"},
{"name": "Lila", "longitude": "-121.324946", "county": "Kittitas County", "last_stocked_amt": "140", "latitude": "47.431699", "alt": "5196", "last_stocked_date": "Sep 10, 2011", "size": "2.8"},
{"name": "Kendall Peak - Upper", "longitude": "-121.376074", "county": "Kittitas County", "last_stocked_amt": "130", "latitude": "47.433119", "alt": "4740", "last_stocked_date": "Sep 28, 2012", "size": "6.0"},
{"name": "Kendall Peak - Middle", "longitude": "-121.380256", "county": "Kittitas County", "last_stocked_amt": "75", "latitude": "47.432184", "alt": "4434", "last_stocked_date": "Sep 28, 2012", "size": "3.7"},
{"name": "Laura", "longitude": "-121.343837", "county": "Kittitas County", "last_stocked_amt": "270", "latitude": "47.397542", "alt": "4370", "last_stocked_date": "Aug 20, 2012", "size": "3.2"},
{"name": "Kendall Peak - Lower", "longitude": "-121.381975", "county": "Kittitas County", "last_stocked_amt": "80", "latitude": "47.429905", "alt": "4382", "last_stocked_date": "Sep 23, 2004", "size": "1.9"},
{"name": "Joe - Little", "longitude": "-121.155973", "county": "Kittitas County", "last_stocked_amt": "387", "latitude": "47.387113", "alt": "4709", "last_stocked_date": "Sep 16, 2011", "size": "4.4"},
{"name": "Hibox", "longitude": "-121.275975", "county": "Kittitas County", "last_stocked_amt": "110", "latitude": "47.420676", "alt": "4628", "last_stocked_date": "Oct 7, 2012", "size": "2.4"},
{"name": "Icebox", "longitude": "-121.300791", "county": "Kittitas County", "last_stocked_amt": "35", "latitude": "47.472974", "alt": "5389", "last_stocked_date": "Aug 4, 2007", "size": "0.6"},
{"name": "Glacier", "longitude": "-121.296072", "county": "Kittitas County", "last_stocked_amt": "997", "latitude": "47.467546", "alt": "4744", "last_stocked_date": "Sep 12, 2009", "size": "20.2"},
{"name": "Gold", "longitude": "-121.350000", "county": "Kittitas County", "last_stocked_amt": "80", "latitude": "47.407431", "alt": "4785", "last_stocked_date": "Aug 18, 2013", "size": "3.6"},
{"name": "Frog Pothole", "longitude": "-121.430489", "county": "Kittitas County", "last_stocked_amt": "50", "latitude": "47.385101", "alt": "3596", "last_stocked_date": "Jul 22, 2007", "size": "0.2"},
{"name": "Gallaher Head", "longitude": "-120.978167", "county": "Kittitas County", "last_stocked_amt": "75", "latitude": "47.442861", "alt": "5627", "last_stocked_date": "Oct 5, 2012", "size": "2.9"},
{"name": "Frog", "longitude": "-121.429420", "county": "Kittitas County", "last_stocked_amt": "100", "latitude": "47.384338", "alt": "3544", "last_stocked_date": "Sep 9, 2011", "size": "0.7"},
{"name": "Divide", "longitude": "-121.427540", "county": "Kittitas County", "last_stocked_amt": "130", "latitude": "47.400907", "alt": "3873", "last_stocked_date": "Oct 5, 2012", "size": "2.2"},
{"name": "Fireweed Lk 1", "longitude": "-121.396653", "county": "Kittitas County", "last_stocked_amt": "80", "latitude": "47.324467", "alt": "4070", "last_stocked_date": "Aug 7, 2013", "size": "1.6"},
{"name": "Fireweed Lk 2", "longitude": "-121.396439", "county": "Kittitas County", "last_stocked_amt": "60", "latitude": "47.323159", "alt": "4070", "last_stocked_date": "Aug 30, 2001", "size": "0.9"},
{"name": "Diamond", "longitude": "-121.161451", "county": "Kittitas County", "last_stocked_amt": "300", "latitude": "47.442766", "alt": "4950", "last_stocked_date": "Sep 17, 2011", "size": "4.7"},
{"name": "Devils Slide", "longitude": "-121.003066", "county": "Kittitas County", "last_stocked_amt": "150", "latitude": "46.977441", "alt": "4400", "last_stocked_date": "Aug 9, 2011", "size": "2.2"},
{"name": "Cottonwood - Upper", "longitude": "-121.437165", "county": "Kittitas County", "last_stocked_amt": "50", "latitude": "47.351026", "alt": "4072", "last_stocked_date": "Sep 18, 2012", "size": "0.9"},
{"name": "Deer 1", "longitude": "-121.141355", "county": "Kittitas County", "last_stocked_amt": "219", "latitude": "47.534655", "alt": "4580", "last_stocked_date": "Sep 26, 2010", "size": "2.7"},
{"name": "Cottonwood", "longitude": "-121.431365", "county": "Kittitas County", "last_stocked_amt": "390", "latitude": "47.349133", "alt": "3914", "last_stocked_date": "Jul 30, 2001", "size": "8.3"},
{"name": "Chanty", "longitude": "-121.227653", "county": "Kittitas County", "last_stocked_amt": "200", "latitude": "47.280315", "alt": "2350", "last_stocked_date": "Aug 29, 2012", "size": "1.2"},
{"name": "Cooper Lake", "longitude": "-121.176924", "county": "Kittitas County", "last_stocked_amt": "11,259", "latitude": "47.426187", "alt": "2792", "last_stocked_date": "Sep 11, 2003", "size": "129.4"},
{"name": "Chikamin Pot 2", "longitude": "-121.302089", "county": "Kittitas County", "last_stocked_amt": "100", "latitude": "47.477671", "alt": "5712", "last_stocked_date": "Aug 26, 2000", "size": "1.9"},
{"name": "Box Canyon", "longitude": "-121.324422", "county": "Kittitas County", "last_stocked_amt": "110", "latitude": "47.412602", "alt": "4510", "last_stocked_date": "Sep 3, 2012", "size": "1.7"},
{"name": "Baker (Thetis)", "longitude": "-121.301709", "county": "Kittitas County", "last_stocked_amt": "400", "latitude": "47.351427", "alt": "4434", "last_stocked_date": "Sep 26, 2002", "size": "4.7"},
{"name": "Alta Mtn Pot 1", "longitude": "-121.325012", "county": "Kittitas County", "last_stocked_amt": "30", "latitude": "47.437467", "alt": "5512", "last_stocked_date": "Aug 20, 2013", "size": "0.5"},
{"name": "Alta Mtn Pot 2", "longitude": "-121.327748", "county": "Kittitas County", "last_stocked_amt": "100", "latitude": "47.437594", "alt": "5635", "last_stocked_date": "Aug 20, 2013", "size": "1.4"},
{"name": "Mig", "longitude": "-121.086221", "county": "King County", "last_stocked_amt": "50", "latitude": "47.703824", "alt": "4673", "last_stocked_date": "Jul 23, 2013", "size": "2.0"},
{"name": "Unnamed - L28791", "longitude": "-121.043756", "county": "Chelan County", "last_stocked_amt": "48", "latitude": "47.536925", "alt": "6117", "last_stocked_date": "Aug 5, 2003", "size": "0.3"},
{"name": "Unnamed - L5032", "longitude": "-121.116649", "county": "Chelan County", "last_stocked_amt": "40", "latitude": "47.664683", "alt": "5668", "last_stocked_date": "Sep 19, 2010", "size": "2.0"},
{"name": "Windy", "longitude": "-120.867605", "county": "Chelan County", "last_stocked_amt": "110", "latitude": "47.562951", "alt": "6998", "last_stocked_date": "Sep 15, 2009", "size": "1.2"},
{"name": "Unnamed - L28741", "longitude": "-121.028225", "county": "Chelan County", "last_stocked_amt": "100", "latitude": "47.532170", "alt": "6040", "last_stocked_date": "Jul 28, 2006", "size": "1.5"},
{"name": "Two Little - S'Most", "longitude": "-120.623264", "county": "Chelan County", "last_stocked_amt": "110", "latitude": "47.932713", "alt": "5834", "last_stocked_date": "Sep 7, 2013", "size": "2.4"},
{"name": "Twin Lake 2", "longitude": "-120.837941", "county": "Chelan County", "last_stocked_amt": "40,356", "latitude": "47.908991", "alt": "2829", "last_stocked_date": "Sep 7, 2005", "size": "256.5"},
{"name": "Twin Lake 1", "longitude": "-120.857379", "county": "Chelan County", "last_stocked_amt": "3,479", "latitude": "47.923122", "alt": "2826", "last_stocked_date": "Sep 18, 2000", "size": "32.4"},
{"name": "Top", "longitude": "-121.149793", "county": "Chelan County", "last_stocked_amt": "570", "latitude": "47.881704", "alt": "4597", "last_stocked_date": "Sep 23, 2013", "size": "7.8"},
{"name": "Thunder Mtn 2", "longitude": "-121.121702", "county": "Chelan County", "last_stocked_amt": "120", "latitude": "47.656925", "alt": "6112", "last_stocked_date": "Sep 20, 2010", "size": "3.3"},
{"name": "Swedes", "longitude": "-121.092605", "county": "Chelan County", "last_stocked_amt": "179", "latitude": "47.591207", "alt": "5915", "last_stocked_date": "Aug 6, 2009", "size": "3.4"},
{"name": "Swimming Deer", "longitude": "-121.062027", "county": "Chelan County", "last_stocked_amt": "120", "latitude": "47.710452", "alt": "4909", "last_stocked_date": "Sep 15, 2013", "size": "2.1"},
{"name": "Swallow - West", "longitude": "-121.112772", "county": "Chelan County", "last_stocked_amt": "300", "latitude": "47.625716", "alt": "5596", "last_stocked_date": "Aug 10, 2008", "size": "2.7"},
{"name": "Swallow - South", "longitude": "-121.093841", "county": "Chelan County", "last_stocked_amt": "610", "latitude": "47.621795", "alt": "5520", "last_stocked_date": "Aug 23, 2013", "size": "8.9"},
{"name": "Susan Jane", "longitude": "-121.066413", "county": "Chelan County", "last_stocked_amt": "40", "latitude": "47.721283", "alt": "4591", "last_stocked_date": "Sep 18, 2013", "size": "2.0"},
{"name": "Sprite", "longitude": "-121.053598", "county": "Chelan County", "last_stocked_amt": "230", "latitude": "47.541589", "alt": "5990", "last_stocked_date": "Oct 9, 2011", "size": "3.2"},
{"name": "Spirit", "longitude": "-120.963284", "county": "Chelan County", "last_stocked_amt": "130", "latitude": "47.489446", "alt": "5628", "last_stocked_date": "Sep 24, 2009", "size": "1.6"},
{"name": "Sally Ann", "longitude": "-121.152994", "county": "Chelan County", "last_stocked_amt": "179", "latitude": "47.961356", "alt": "5475", "last_stocked_date": "Aug 8, 2013", "size": "2.2"},
{"name": "Rock", "longitude": "-120.963897", "county": "Chelan County", "last_stocked_amt": "210", "latitude": "47.797634", "alt": "5862", "last_stocked_date": "Sep 27, 2001", "size": "2.7"},
{"name": "Rettebdel", "longitude": "-121.093042", "county": "Chelan County", "last_stocked_amt": "25", "latitude": "47.642230", "alt": "5164", "last_stocked_date": "Sep 22, 2010", "size": "1.0"},
{"name": "Poe Mountain", "longitude": "-121.043329", "county": "Chelan County", "last_stocked_amt": "80", "latitude": "47.916901", "alt": "5429", "last_stocked_date": "Oct 2, 2009", "size": "1.2"},
{"name": "MM", "longitude": "-121.057354", "county": "Chelan County", "last_stocked_amt": "80", "latitude": "47.560732", "alt": "5156", "last_stocked_date": "Sep 29, 2011", "size": "0.7"},
{"name": "Minotaur", "longitude": "-121.038850", "county": "Chelan County", "last_stocked_amt": "1,500", "latitude": "47.846573", "alt": "5554", "last_stocked_date": "Aug 27, 2009", "size": "18.1"},
{"name": "Lost", "longitude": "-120.627330", "county": "Chelan County", "last_stocked_amt": "85", "latitude": "47.884394", "alt": "5630", "last_stocked_date": "Nov 1, 2012", "size": "1.0"},
{"name": "Milk", "longitude": "-121.117750", "county": "Chelan County", "last_stocked_amt": "149", "latitude": "47.641797", "alt": "5150", "last_stocked_date": "Sep 4, 2010", "size": "2.5"},
{"name": "Lorraine", "longitude": "-121.084264", "county": "Chelan County", "last_stocked_amt": "70", "latitude": "47.663069", "alt": "5069", "last_stocked_date": "Sep 20, 2012", "size": "2.6"},
{"name": "Larch - Upper", "longitude": "-120.738846", "county": "Chelan County", "last_stocked_amt": "823", "latitude": "48.063584", "alt": "5736", "last_stocked_date": "Aug 8, 2002", "size": "4.3"},
{"name": "Lake Creek Pond", "longitude": "-121.136842", "county": "Chelan County", "last_stocked_amt": "60", "latitude": "47.869060", "alt": "4344", "last_stocked_date": "Sep 10, 2010", "size": "0.8"},
{"name": "King", "longitude": "-120.897024", "county": "Chelan County", "last_stocked_amt": "550", "latitude": "48.094608", "alt": "5948", "last_stocked_date": "Oct 23, 2009", "size": "2.3"},
{"name": "Jungfrau", "longitude": "-121.111376", "county": "Chelan County", "last_stocked_amt": "230", "latitude": "47.609316", "alt": "5352", "last_stocked_date": "Aug 31, 2009", "size": "5.0"},
{"name": "Jove", "longitude": "-121.067567", "county": "Chelan County", "last_stocked_amt": "60", "latitude": "47.824630", "alt": "5157", "last_stocked_date": "Oct 11, 2009", "size": "0.7"},
{"name": "Josephine", "longitude": "-121.057149", "county": "Chelan County", "last_stocked_amt": "560", "latitude": "47.719148", "alt": "4686", "last_stocked_date": "Oct 5, 2011", "size": "22.5"},
{"name": "Ingalls", "longitude": "-120.938581", "county": "Chelan County", "last_stocked_amt": "400", "latitude": "47.470437", "alt": "6467", "last_stocked_date": "Oct 17, 2011", "size": "15.8"},
{"name": "Ida", "longitude": "-120.859427", "county": "Chelan County", "last_stocked_amt": "800", "latitude": "47.635527", "alt": "6765", "last_stocked_date": "Aug 15, 2009", "size": "15.0"},
{"name": "Ice 1 (East)", "longitude": "-120.783480", "county": "Chelan County", "last_stocked_amt": "1,762", "latitude": "48.133590", "alt": "6826", "last_stocked_date": "Sep 7, 2005", "size": "20.1"},
{"name": "Indian Pond 1", "longitude": "-120.933061", "county": "Chelan County", "last_stocked_amt": "100", "latitude": "47.928978", "alt": "2737", "last_stocked_date": "Sep 15, 2011", "size": "0.3"},
{"name": "Horseshoe", "longitude": "-120.908029", "county": "Chelan County", "last_stocked_amt": "250", "latitude": "47.493959", "alt": "6269", "last_stocked_date": "Sep 27, 2013", "size": "8.3"},
{"name": "Granite Mountain Pothole 3", "longitude": "-121.109310", "county": "Chelan County", "last_stocked_amt": "70", "latitude": "47.593185", "alt": "6315", "last_stocked_date": "Aug 19, 2009", "size": "1.5"},
{"name": "Granite Mountain Pothole 2", "longitude": "-121.106132", "county": "Chelan County", "last_stocked_amt": "117", "latitude": "47.592856", "alt": "6034", "last_stocked_date": "Aug 19, 2009", "size": "2.3"},
{"name": "Glasses", "longitude": "-121.125790", "county": "Chelan County", "last_stocked_amt": "1,995", "latitude": "47.842054", "alt": "4632", "last_stocked_date": "Sep 8, 2005", "size": "22.2"},
{"name": "Granite Mountain Pothole 1", "longitude": "-121.104776", "county": "Chelan County", "last_stocked_amt": "205", "latitude": "47.593922", "alt": "5990", "last_stocked_date": "Aug 19, 2009", "size": "4.4"},
{"name": "French Potholes - Upper", "longitude": "-121.084437", "county": "Chelan County", "last_stocked_amt": "250", "latitude": "47.568263", "alt": "5716", "last_stocked_date": "Oct 3, 2011", "size": "3.8"},
{"name": "Grace - Upper", "longitude": "-120.931821", "county": "Chelan County", "last_stocked_amt": "80", "latitude": "47.690164", "alt": "6913", "last_stocked_date": "Oct 2, 2011", "size": "2.5"},
{"name": "Florence - Upper", "longitude": "-120.935226", "county": "Chelan County", "last_stocked_amt": "160", "latitude": "47.657074", "alt": "6508", "last_stocked_date": "Sep 21, 2011", "size": "2.4"},
{"name": "Florence - Lower", "longitude": "-120.939306", "county": "Chelan County", "last_stocked_amt": "299", "latitude": "47.653730", "alt": "5795", "last_stocked_date": "Oct 13, 2011", "size": "1.6"},
{"name": "Flora", "longitude": "-120.914766", "county": "Chelan County", "last_stocked_amt": "640", "latitude": "47.669200", "alt": "5715", "last_stocked_date": "Sep 4, 2010", "size": "5.4"},
{"name": "Fish Lake", "longitude": "-120.704719", "county": "Chelan County", "last_stocked_amt": "26,125", "latitude": "47.834435", "alt": "1933", "last_stocked_date": "May 10, 2006", "size": "492.5"},
{"name": "Ethel", "longitude": "-120.888462", "county": "Chelan County", "last_stocked_amt": "1,503", "latitude": "47.750480", "alt": "5504", "last_stocked_date": "Sep 20, 2000", "size": "15.3"},
{"name": "Enchantment 10 (Isolation)", "longitude": "-120.819552", "county": "Chelan County", "last_stocked_amt": "820", "latitude": "47.477210", "alt": "7704", "last_stocked_date": "Sep 23, 2011", "size": "19.8"},
{"name": "Enchantment No 8", "longitude": "-120.817008", "county": "Chelan County", "last_stocked_amt": "100", "latitude": "47.479236", "alt": "7714", "last_stocked_date": "Sep 23, 2011", "size": "2.6"},
{"name": "Enchantment 9 (Tranquil)", "longitude": "-120.817995", "county": "Chelan County", "last_stocked_amt": "60", "latitude": "47.481031", "alt": "7800", "last_stocked_date": "Sep 23, 2011", "size": "1.5"},
{"name": "Enchantment 1 (Temple)", "longitude": "-120.778883", "county": "Chelan County", "last_stocked_amt": "280", "latitude": "47.484912", "alt": "6875", "last_stocked_date": "Sep 25, 2013", "size": "4.4"},
{"name": "Eightmile", "longitude": "-120.865256", "county": "Chelan County", "last_stocked_amt": "12,549", "latitude": "47.520336", "alt": "4645", "last_stocked_date": "Sep 18, 2000", "size": "63.0"},
{"name": "Edna", "longitude": "-120.912157", "county": "Chelan County", "last_stocked_amt": "140", "latitude": "47.657063", "alt": "6755", "last_stocked_date": "Sep 21, 2009", "size": "1.8"},
{"name": "Eagle Creek Pond", "longitude": "-120.615975", "county": "Chelan County", "last_stocked_amt": "42", "latitude": "47.636300", "alt": "1396", "last_stocked_date": "Oct 8, 2007", "size": "3.5"},
{"name": "Domke Lake", "longitude": "-120.588090", "county": "Chelan County", "last_stocked_amt": "11,267", "latitude": "48.177455", "alt": "2196", "last_stocked_date": "Sep 7, 2005", "size": "272.7"},
{"name": "Donald", "longitude": "-120.890492", "county": "Chelan County", "last_stocked_amt": "1,185", "latitude": "47.735099", "alt": "5875", "last_stocked_date": "Sep 20, 2000", "size": "11.6"},
{"name": "Crystal", "longitude": "-120.802208", "county": "Chelan County", "last_stocked_amt": "372", "latitude": "47.474230", "alt": "7009", "last_stocked_date": "Sep 28, 2001", "size": "7.1"},
{"name": "Crescent", "longitude": "-120.954693", "county": "Chelan County", "last_stocked_amt": "150", "latitude": "47.805352", "alt": "5464", "last_stocked_date": "Sep 27, 2001", "size": "2.2"},
{"name": "Cradle", "longitude": "-120.994670", "county": "Chelan County", "last_stocked_amt": "550", "latitude": "47.556121", "alt": "6181", "last_stocked_date": "Oct 8, 2011", "size": "7.4"},
{"name": "Copper Creek Pot", "longitude": "-120.649937", "county": "Chelan County", "last_stocked_amt": "49", "latitude": "48.493545", "alt": "5855", "last_stocked_date": "Aug 27, 2012", "size": "1.6"},
{"name": "Colchuck", "longitude": "-120.833592", "county": "Chelan County", "last_stocked_amt": "5,314", "latitude": "47.491988", "alt": "5574", "last_stocked_date": "Sep 20, 2000", "size": "85.7"},
{"name": "Clear", "longitude": "-121.121927", "county": "Chelan County", "last_stocked_amt": "230", "latitude": "47.636475", "alt": "5192", "last_stocked_date": "Sep 23, 2006", "size": "3.4"},
{"name": "Choral", "longitude": "-120.656643", "county": "Chelan County", "last_stocked_amt": "110", "latitude": "48.087485", "alt": "7193", "last_stocked_date": "Sep 20, 2013", "size": "1.7"},
{"name": "Caroline", "longitude": "-120.864283", "county": "Chelan County", "last_stocked_amt": "478", "latitude": "47.539571", "alt": "6192", "last_stocked_date": "Oct 2, 2011", "size": "6.1"},
{"name": "Cara", "longitude": "-120.855598", "county": "Chelan County", "last_stocked_amt": "100", "latitude": "47.571056", "alt": "6910", "last_stocked_date": "Sep 15, 2009", "size": "1.7"},
{"name": "Caroline - Little", "longitude": "-120.872258", "county": "Chelan County", "last_stocked_amt": "225", "latitude": "47.543650", "alt": "6309", "last_stocked_date": "Aug 25, 2005", "size": "2.0"},
{"name": "Canaan", "longitude": "-120.943411", "county": "Chelan County", "last_stocked_amt": "150", "latitude": "47.815032", "alt": "5915", "last_stocked_date": "Oct 23, 2013", "size": "1.8"},
{"name": "C&E Pot", "longitude": "-120.896029", "county": "Chelan County", "last_stocked_amt": "128", "latitude": "47.723779", "alt": "5439", "last_stocked_date": "Oct 16, 2011", "size": "2.2"},
{"name": "Bob", "longitude": "-121.064356", "county": "Chelan County", "last_stocked_amt": "449", "latitude": "47.589806", "alt": "5196", "last_stocked_date": "Sep 23, 2002", "size": "3.3"},
{"name": "Brigham", "longitude": "-120.921084", "county": "Chelan County", "last_stocked_amt": "250", "latitude": "47.670106", "alt": "5832", "last_stocked_date": "Sep 4, 2010", "size": "3.4"},
{"name": "Beehive Reservoir", "longitude": "-120.399643", "county": "Chelan County", "last_stocked_amt": "2,250", "latitude": "47.326567", "alt": "4247", "last_stocked_date": "Jun 2, 2005", "size": "13.2"},
{"name": "Alice", "longitude": "-120.917521", "county": "Chelan County", "last_stocked_amt": "240", "latitude": "47.647503", "alt": "6037", "last_stocked_date": "Sep 21, 2011", "size": "3.8"},
{"name": "Augusta", "longitude": "-120.835361", "county": "Chelan County", "last_stocked_amt": "1,074", "latitude": "47.653492", "alt": "6858", "last_stocked_date": "Sep 8, 2005", "size": "23.1"},
{"name": "Wonder Lake 2", "longitude": "-123.438830", "county": "Mason County", "last_stocked_amt": "585", "latitude": "47.510851", "alt": "3518", "last_stocked_date": "Sep 11, 2006", "size": "1.0"},
{"name": "Wonder Lake 1", "longitude": "-123.452939", "county": "Mason County", "last_stocked_amt": "495", "latitude": "47.514466", "alt": "3996", "last_stocked_date": "Sep 24, 2011", "size": "4.7"},
{"name": "Tracy Lake", "longitude": "-123.420717", "county": "Mason County", "last_stocked_amt": "300", "latitude": "47.465621", "alt": "3590", "last_stocked_date": "Aug 27, 2001", "size": "0.9"},
{"name": "Spider Lake", "longitude": "-123.434603", "county": "Mason County", "last_stocked_amt": "325", "latitude": "47.407198", "alt": "1257", "last_stocked_date": "Sep 11, 2006", "size": "18.0"},
{"name": "Pine Lake", "longitude": "-123.478157", "county": "Mason County", "last_stocked_amt": "620", "latitude": "47.430832", "alt": "1745", "last_stocked_date": "Jul 14, 2013", "size": "7.7"},
{"name": "Mildred - TB 2", "longitude": "-123.293660", "county": "Mason County", "last_stocked_amt": "777", "latitude": "47.560485", "alt": "3758", "last_stocked_date": "Sep 9, 2011", "size": "8.5"},
{"name": "Snow Lake", "longitude": "-123.400881", "county": "Mason County", "last_stocked_amt": "399", "latitude": "47.483958", "alt": "3557", "last_stocked_date": "Oct 29, 2012", "size": "6.0"},
{"name": "Mildred Lakes 2", "longitude": "-123.299713", "county": "Mason County", "last_stocked_amt": "2,205", "latitude": "47.561250", "alt": "3822", "last_stocked_date": "Sep 11, 2006", "size": "11.4"},
{"name": "Pershing", "longitude": "-123.224849", "county": "Mason County", "last_stocked_amt": "100", "latitude": "47.565921", "alt": "4565", "last_stocked_date": "Oct 29, 2011", "size": "2.0"},
{"name": "Mildred Lakes 1", "longitude": "-123.304563", "county": "Mason County", "last_stocked_amt": "397", "latitude": "47.556831", "alt": "3816", "last_stocked_date": "Jul 31, 2010", "size": "42.3"},
{"name": "Goober Pond", "longitude": "-123.214996", "county": "Mason County", "last_stocked_amt": "1,479", "latitude": "47.559206", "alt": "3095", "last_stocked_date": "Jul 31, 2002", "size": "0.9"},
{"name": "Elk Lake - Upper", "longitude": "-123.139897", "county": "Mason County", "last_stocked_amt": "604", "latitude": "47.565826", "alt": "1156", "last_stocked_date": "Aug 24, 2005", "size": "3.8"},
{"name": "Ellinor Lake", "longitude": "-123.258589", "county": "Mason County", "last_stocked_amt": "400", "latitude": "47.534723", "alt": "3890", "last_stocked_date": "Aug 23, 2013", "size": "5.6"},
{"name": "Silver 2", "longitude": "-123.071024", "county": "Jefferson County", "last_stocked_amt": "300", "latitude": "47.844145", "alt": "5391", "last_stocked_date": "Sep 27, 2009", "size": "2.3"},
{"name": "Elk", "longitude": "-123.136895", "county": "Mason County", "last_stocked_amt": "300", "latitude": "47.569875", "alt": "1046", "last_stocked_date": "Aug 25, 2000", "size": "9.2"},
{"name": "Jupiter 6", "longitude": "-123.070513", "county": "Jefferson County", "last_stocked_amt": "142", "latitude": "47.711007", "alt": "4344", "last_stocked_date": "Aug 19, 2004", "size": "2.0"},
{"name": "Lena Lk-Lower", "longitude": "-123.159503", "county": "Jefferson County", "last_stocked_amt": "3,207", "latitude": "47.619386", "alt": "1791", "last_stocked_date": "Aug 29, 2003", "size": "51.1"},
{"name": "Jupiter 4 (Highest)", "longitude": "-123.047882", "county": "Jefferson County", "last_stocked_amt": "200", "latitude": "47.710454", "alt": "3948", "last_stocked_date": "Oct 18, 2011", "size": "3.1"},
{"name": "Jupiter 3", "longitude": "-123.050242", "county": "Jefferson County", "last_stocked_amt": "570", "latitude": "47.714733", "alt": "3819", "last_stocked_date": "Aug 19, 2004", "size": "7.3"},
{"name": "Klone Lake 2", "longitude": "-123.541311", "county": "Grays Harbor County", "last_stocked_amt": "768", "latitude": "47.475640", "alt": "3183", "last_stocked_date": "Aug 19, 2004", "size": "4.5"},
{"name": "Goat", "longitude": "-123.189079", "county": "Jefferson County", "last_stocked_amt": "400", "latitude": "47.839487", "alt": "5943", "last_stocked_date": "Oct 17, 2011", "size": "7.3"},
{"name": "Charlia Lakes 1", "longitude": "-123.125579", "county": "Jefferson County", "last_stocked_amt": "776", "latitude": "47.800254", "alt": "5504", "last_stocked_date": "Aug 29, 2003", "size": "7.7"},
{"name": "Discovery", "longitude": "-123.567563", "county": "Grays Harbor County", "last_stocked_amt": "502", "latitude": "47.513022", "alt": "3788", "last_stocked_date": "Aug 12, 2009", "size": "1.4"},
{"name": "Klone Lake 1", "longitude": "-123.543874", "county": "Grays Harbor County", "last_stocked_amt": "1,024", "latitude": "47.472160", "alt": "3184", "last_stocked_date": "Aug 19, 2004", "size": "7.8"},
{"name": "Thornton - Lower", "longitude": "-121.327937", "county": "Whatcom County", "last_stocked_amt": "6,375", "latitude": "48.684154", "alt": "4486", "last_stocked_date": "Sep 10, 2008", "size": "52.0"},
{"name": "Sourdough", "longitude": "-121.124668", "county": "Whatcom County", "last_stocked_amt": "2,000", "latitude": "48.759094", "alt": "4617", "last_stocked_date": "Aug 15, 2002", "size": "26.6"},
{"name": "Skymo", "longitude": "-121.103291", "county": "Whatcom County", "last_stocked_amt": "1,200", "latitude": "48.836288", "alt": "5281", "last_stocked_date": "Sep 15, 2009", "size": "10.7"},
{"name": "Kwahnesum", "longitude": "-121.481593", "county": "Whatcom County", "last_stocked_amt": "1,500", "latitude": "48.975987", "alt": "5106", "last_stocked_date": "Sep 9, 2003", "size": "16.4"},
{"name": "Quill - Upper", "longitude": "-121.392416", "county": "Whatcom County", "last_stocked_amt": "35", "latitude": "48.669567", "alt": "4514", "last_stocked_date": "Aug 24, 2002", "size": "0.9"},
{"name": "Quill - Lower", "longitude": "-121.393678", "county": "Whatcom County", "last_stocked_amt": "35", "latitude": "48.669129", "alt": "4558", "last_stocked_date": "Aug 24, 2002", "size": "0.5"},
{"name": "Firn", "longitude": "-121.153278", "county": "Whatcom County", "last_stocked_amt": "150", "latitude": "48.833075", "alt": "5476", "last_stocked_date": "Sep 11, 2000", "size": "4.5"},
{"name": "Hi Yu", "longitude": "-121.465687", "county": "Whatcom County", "last_stocked_amt": "249", "latitude": "48.662256", "alt": "3831", "last_stocked_date": "Aug 20, 2005", "size": "3.2"},
{"name": "Diobsud - Middle", "longitude": "-121.542977", "county": "Whatcom County", "last_stocked_amt": "199", "latitude": "48.648805", "alt": "4430", "last_stocked_date": "Aug 17, 2003", "size": "3.8"},
{"name": "Diobsud - E'most", "longitude": "-121.537648", "county": "Whatcom County", "last_stocked_amt": "200", "latitude": "48.645894", "alt": "4014", "last_stocked_date": "Aug 17, 2003", "size": "3.0"},
{"name": "Copper", "longitude": "-121.450833", "county": "Whatcom County", "last_stocked_amt": "1,000", "latitude": "48.918069", "alt": "5267", "last_stocked_date": "Sep 26, 2006", "size": "12.9"},
{"name": "Berdeen", "longitude": "-121.464573", "county": "Whatcom County", "last_stocked_amt": "4,000", "latitude": "48.715930", "alt": "5018", "last_stocked_date": "Aug 15, 2002", "size": "125.6"},
{"name": "Hidden Lake Tarn", "longitude": "-121.186748", "county": "Skagit County", "last_stocked_amt": "276", "latitude": "48.502572", "alt": "5947", "last_stocked_date": "Aug 22, 2002", "size": "4.5"},
{"name": "Sweetpea", "longitude": "-120.943978", "county": "Skagit County", "last_stocked_amt": "130", "latitude": "48.600949", "alt": "5553", "last_stocked_date": "Aug 12, 2005", "size": "9.0"},
{"name": "Hidden", "longitude": "-121.188723", "county": "Skagit County", "last_stocked_amt": "4,000", "latitude": "48.495611", "alt": "5737", "last_stocked_date": "Sep 26, 2006", "size": "61.3"},
{"name": "Wapiki", "longitude": "-121.749865", "county": "Skamania County", "last_stocked_amt": "950", "latitude": "46.019824", "alt": "5241", "last_stocked_date": "Sep 27, 2001", "size": "7.3"},
{"name": "Umtux 1", "longitude": "-121.804227", "county": "Skamania County", "last_stocked_amt": "200", "latitude": "45.990511", "alt": "4826", "last_stocked_date": "Jun 20, 2001", "size": "1.4"},
{"name": "Tradedollar", "longitude": "-122.231807", "county": "Skamania County", "last_stocked_amt": "608", "latitude": "46.354834", "alt": "3584", "last_stocked_date": "Oct 1, 2001", "size": "12.3"},
{"name": "Tombstone", "longitude": "-121.793344", "county": "Skamania County", "last_stocked_amt": "170", "latitude": "45.981441", "alt": "4559", "last_stocked_date": "Jul 9, 2013", "size": "1.3"},
{"name": "Toke-Tie Pot", "longitude": "-121.792008", "county": "Skamania County", "last_stocked_amt": "270", "latitude": "45.988149", "alt": "4591", "last_stocked_date": "Jul 9, 2013", "size": "2.9"},
{"name": "Toke-Tie", "longitude": "-121.789927", "county": "Skamania County", "last_stocked_amt": "270", "latitude": "45.991599", "alt": "4694", "last_stocked_date": "Jul 9, 2013", "size": "2.9"},
{"name": "Takhlakh Lake", "longitude": "-121.596481", "county": "Skamania County", "last_stocked_amt": "1,588", "latitude": "46.278152", "alt": "4389", "last_stocked_date": "Jul 15, 2013", "size": "32.6"},
{"name": "Surprise 16", "longitude": "-121.758649", "county": "Skamania County", "last_stocked_amt": "2,000", "latitude": "46.085519", "alt": "4189", "last_stocked_date": "Jun 10, 2013", "size": "2.0"},
{"name": "Steamboat - Little", "longitude": "-121.710629", "county": "Skamania County", "last_stocked_amt": "200", "latitude": "46.131717", "alt": "3909", "last_stocked_date": "Jul 9, 2013", "size": "3.6"},
{"name": "Steamboat", "longitude": "-121.714638", "county": "Skamania County", "last_stocked_amt": "1,000", "latitude": "46.129212", "alt": "4026", "last_stocked_date": "Jul 9, 2013", "size": "13.0"},
{"name": "Rock", "longitude": "-121.804824", "county": "Skamania County", "last_stocked_amt": "300", "latitude": "45.998452", "alt": "4780", "last_stocked_date": "May 15, 2006", "size": "1.9"},
{"name": "Pemi", "longitude": "-122.104526", "county": "Skamania County", "last_stocked_amt": "200", "latitude": "45.838237", "alt": "3863", "last_stocked_date": "Jun 30, 2004", "size": "2.0"},
{"name": "Rock - Little", "longitude": "-121.805025", "county": "Skamania County", "last_stocked_amt": "224", "latitude": "45.997287", "alt": "4782", "last_stocked_date": "Sep 18, 2010", "size": "0.9"},
{"name": "Naha", "longitude": "-121.808487", "county": "Skamania County", "last_stocked_amt": "180", "latitude": "45.998546", "alt": "4773", "last_stocked_date": "Sep 4, 2013", "size": "1.7"},
{"name": "Olallie", "longitude": "-121.616546", "county": "Skamania County", "last_stocked_amt": "1,000", "latitude": "46.288947", "alt": "4242", "last_stocked_date": "Jul 3, 2013", "size": "13.7"},
{"name": "Moon", "longitude": "-122.100042", "county": "Skamania County", "last_stocked_amt": "200", "latitude": "45.842715", "alt": "3460", "last_stocked_date": "Jun 30, 2004", "size": "1.5"},
{"name": "Lemei", "longitude": "-121.776813", "county": "Skamania County", "last_stocked_amt": "700", "latitude": "46.017913", "alt": "4865", "last_stocked_date": "Sep 18, 2010", "size": "6.1"},
{"name": "Mouse", "longitude": "-121.662817", "county": "Skamania County", "last_stocked_amt": "400", "latitude": "46.360087", "alt": "4470", "last_stocked_date": "Aug 29, 2012", "size": "7.9"},
{"name": "Kwaddis", "longitude": "-121.830996", "county": "Skamania County", "last_stocked_amt": "350", "latitude": "46.000734", "alt": "4309", "last_stocked_date": "Jun 19, 2001", "size": "3.1"},
{"name": "Intermittent Lake", "longitude": "-121.788183", "county": "Skamania County", "last_stocked_amt": "405", "latitude": "45.940910", "alt": "3857", "last_stocked_date": "Jul 27, 2010", "size": "2.4"},
{"name": "Island", "longitude": "-121.587759", "county": "Skamania County", "last_stocked_amt": "700", "latitude": "46.199081", "alt": "5393", "last_stocked_date": "Sep 13, 2009", "size": "4.4"},
{"name": "Horseshoe", "longitude": "-121.570217", "county": "Skamania County", "last_stocked_amt": "1,045", "latitude": "46.308297", "alt": "4144", "last_stocked_date": "Jul 15, 2013", "size": "21.3"},
{"name": "Hidden 3", "longitude": "-121.733229", "county": "Skamania County", "last_stocked_amt": "500", "latitude": "46.046998", "alt": "4079", "last_stocked_date": "Jun 10, 2013", "size": "2.3"},
{"name": "Hidden 2", "longitude": "-121.736619", "county": "Skamania County", "last_stocked_amt": "500", "latitude": "46.048301", "alt": "4066", "last_stocked_date": "Jun 10, 2013", "size": "3.8"},
{"name": "Hidden 1", "longitude": "-121.739268", "county": "Skamania County", "last_stocked_amt": "500", "latitude": "46.046489", "alt": "4068", "last_stocked_date": "Jun 10, 2013", "size": "9.2"},
{"name": "Heather", "longitude": "-121.827913", "county": "Skamania County", "last_stocked_amt": "300", "latitude": "46.004980", "alt": "4314", "last_stocked_date": "Jul 16, 2013", "size": "2.5"},
{"name": "Harty", "longitude": "-121.786967", "county": "Skamania County", "last_stocked_amt": "227", "latitude": "45.974329", "alt": "4596", "last_stocked_date": "Aug 18, 2010", "size": "2.2"},
{"name": "Hanaford", "longitude": "-122.233143", "county": "Skamania County", "last_stocked_amt": "1,210", "latitude": "46.328631", "alt": "4064", "last_stocked_date": "Aug 29, 2007", "size": "21.7"},
{"name": "Fish - Little", "longitude": "-121.701643", "county": "Skamania County", "last_stocked_amt": "500", "latitude": "46.155452", "alt": "3554", "last_stocked_date": "Jul 9, 2013", "size": "3.6"},
{"name": "Goose Lake", "longitude": "-121.764446", "county": "Skamania County", "last_stocked_amt": "6,006", "latitude": "45.941185", "alt": "3110", "last_stocked_date": "Jun 27, 2011", "size": "73.6"},
{"name": "Eunice", "longitude": "-121.824783", "county": "Skamania County", "last_stocked_amt": "480", "latitude": "46.005080", "alt": "4316", "last_stocked_date": "Jul 16, 2013", "size": "4.8"},
{"name": "Elk", "longitude": "-122.235863", "county": "Skamania County", "last_stocked_amt": "2,000", "latitude": "46.335203", "alt": "3973", "last_stocked_date": "Jul 17, 2002", "size": "27.3"},
{"name": "Camp - South", "longitude": "-121.768412", "county": "Skamania County", "last_stocked_amt": "400", "latitude": "46.107976", "alt": "3991", "last_stocked_date": "Jun 10, 2013", "size": "6.5"},
{"name": "Brader", "longitude": "-121.820440", "county": "Skamania County", "last_stocked_amt": "300", "latitude": "46.001754", "alt": "4479", "last_stocked_date": "Jul 16, 2013", "size": "3.9"},
{"name": "Blue", "longitude": "-121.861766", "county": "Skamania County", "last_stocked_amt": "800", "latitude": "46.240613", "alt": "4557", "last_stocked_date": "Aug 20, 2013", "size": "12.9"},
{"name": "Blue", "longitude": "-121.797779", "county": "Skamania County", "last_stocked_amt": "150", "latitude": "45.984383", "alt": "4628", "last_stocked_date": "Jul 8, 2003", "size": "11.8"},
{"name": "88 Road Beaver Pond", "longitude": "-121.686368", "county": "Skamania County", "last_stocked_amt": "301", "latitude": "46.168676", "alt": "3311", "last_stocked_date": "Jul 21, 2010", "size": "0.9"},
{"name": "Bernice", "longitude": "-121.591988", "county": "Skamania County", "last_stocked_amt": "299", "latitude": "46.206605", "alt": "5185", "last_stocked_date": "Sep 13, 2009", "size": "1.6"},
{"name": "Bear", "longitude": "-121.789360", "county": "Skamania County", "last_stocked_amt": "808", "latitude": "46.019308", "alt": "4748", "last_stocked_date": "Sep 20, 2011", "size": "8.0"},
{"name": "6030 Pond 2", "longitude": "-121.729484", "county": "Skamania County", "last_stocked_amt": "225", "latitude": "45.962394", "alt": "3573", "last_stocked_date": "Jul 27, 2010", "size": "4.2"},
{"name": "6030 Pond 1", "longitude": "-121.738460", "county": "Skamania County", "last_stocked_amt": "315", "latitude": "45.963519", "alt": "3546", "last_stocked_date": "Jul 27, 2010", "size": "1.2"},
{"name": "Wright", "longitude": "-121.575683", "county": "Lewis County", "last_stocked_amt": "150", "latitude": "46.493564", "alt": "2958", "last_stocked_date": "Aug 29, 2012", "size": "6.9"},
{"name": "Willame", "longitude": "-121.804704", "county": "Lewis County", "last_stocked_amt": "300", "latitude": "46.596194", "alt": "4064", "last_stocked_date": "Aug 29, 2012", "size": "4.9"},
{"name": "Unnamed - L8616", "longitude": "-122.455411", "county": "Lewis County", "last_stocked_amt": "50", "latitude": "46.678731", "alt": "2905", "last_stocked_date": "Aug 14, 2001", "size": "1.3"},
{"name": "Unnamed - L7066", "longitude": "-122.473661", "county": "Lewis County", "last_stocked_amt": "50", "latitude": "46.679898", "alt": "3127", "last_stocked_date": "Aug 14, 2001", "size": "1.9"},
{"name": "Watch", "longitude": "-121.974776", "county": "Lewis County", "last_stocked_amt": "900", "latitude": "46.573738", "alt": "3563", "last_stocked_date": "Aug 29, 2012", "size": "14.7"},
{"name": "Unnamed - L8455", "longitude": "-122.456127", "county": "Lewis County", "last_stocked_amt": "100", "latitude": "46.681417", "alt": "2730", "last_stocked_date": "Aug 14, 2001", "size": "3.2"},
{"name": "Snow", "longitude": "-121.401974", "county": "Lewis County", "last_stocked_amt": "313", "latitude": "46.723318", "alt": "4939", "last_stocked_date": "Oct 1, 2011", "size": "7.6"},
{"name": "St Michael", "longitude": "-121.625327", "county": "Lewis County", "last_stocked_amt": "400", "latitude": "46.461211", "alt": "4706", "last_stocked_date": "Aug 29, 2012", "size": "6.4"},
{"name": "St John", "longitude": "-121.619345", "county": "Lewis County", "last_stocked_amt": "150", "latitude": "46.469845", "alt": "5111", "last_stocked_date": "Aug 29, 2012", "size": "1.7"},
{"name": "Pothole Lake", "longitude": "-121.931971", "county": "Lewis County", "last_stocked_amt": "300", "latitude": "46.702049", "alt": "3674", "last_stocked_date": "Sep 3, 2003", "size": "5.4"},
{"name": "Pipe", "longitude": "-121.388415", "county": "Lewis County", "last_stocked_amt": "310", "latitude": "46.701198", "alt": "5194", "last_stocked_date": "Oct 1, 2011", "size": "8.5"},
{"name": "Mud", "longitude": "-121.617442", "county": "Lewis County", "last_stocked_amt": "400", "latitude": "46.394984", "alt": "4870", "last_stocked_date": "Sep 12, 2013", "size": "4.8"},
{"name": "Moss", "longitude": "-122.478905", "county": "Lewis County", "last_stocked_amt": "175", "latitude": "46.661040", "alt": "3021", "last_stocked_date": "Aug 29, 2012", "size": "4.0"},
{"name": "Lost Hat", "longitude": "-121.508744", "county": "Lewis County", "last_stocked_amt": "100", "latitude": "46.618455", "alt": "5585", "last_stocked_date": "Sep 18, 2010", "size": "1.8"},
{"name": "Lost", "longitude": "-121.511036", "county": "Lewis County", "last_stocked_amt": "630", "latitude": "46.601593", "alt": "5169", "last_stocked_date": "Sep 6, 2012", "size": "17.0"},
{"name": "Long Lake", "longitude": "-121.805033", "county": "Lewis County", "last_stocked_amt": "945", "latitude": "46.628468", "alt": "3824", "last_stocked_date": "Aug 10, 2011", "size": "4.5"},
{"name": "Lone Tree", "longitude": "-121.838567", "county": "Lewis County", "last_stocked_amt": "125", "latitude": "46.482505", "alt": "3862", "last_stocked_date": "Sep 26, 2012", "size": "0.4"},
{"name": "Jess", "longitude": "-121.389557", "county": "Lewis County", "last_stocked_amt": "195", "latitude": "46.705751", "alt": "5118", "last_stocked_date": "Oct 1, 2011", "size": "4.1"},
{"name": "Lily", "longitude": "-121.470672", "county": "Lewis County", "last_stocked_amt": "250", "latitude": "46.640491", "alt": "3657", "last_stocked_date": "Jun 16, 2013", "size": "18.3"},
{"name": "Jackpot", "longitude": "-121.698384", "county": "Lewis County", "last_stocked_amt": "220", "latitude": "46.466596", "alt": "4555", "last_stocked_date": "Oct 14, 2011", "size": "2.6"},
{"name": "Hager", "longitude": "-121.636095", "county": "Lewis County", "last_stocked_amt": "250", "latitude": "46.577851", "alt": "2936", "last_stocked_date": "Sep 1, 2012", "size": "1.1"},
{"name": "Glacier", "longitude": "-121.583027", "county": "Lewis County", "last_stocked_amt": "300", "latitude": "46.550129", "alt": "2909", "last_stocked_date": "Sep 1, 2012", "size": "30.6"},
{"name": "Fryingpan", "longitude": "-121.418749", "county": "Lewis County", "last_stocked_amt": "830", "latitude": "46.732304", "alt": "4818", "last_stocked_date": "Sep 8, 2012", "size": "20.7"},
{"name": "Fizrenken", "longitude": "-121.805108", "county": "Lewis County", "last_stocked_amt": "150", "latitude": "46.731820", "alt": "3907", "last_stocked_date": "Aug 29, 2012", "size": "0.7"},
{"name": "Dumbbell", "longitude": "-121.380312", "county": "Lewis County", "last_stocked_amt": "1,660", "latitude": "46.691918", "alt": "5095", "last_stocked_date": "Sep 8, 2012", "size": "38.1"},
{"name": "Die Hard 1", "longitude": "-121.557607", "county": "Lewis County", "last_stocked_amt": "100", "latitude": "46.531652", "alt": "5181", "last_stocked_date": "Sep 2, 2010", "size": "1.4"},
{"name": "Bluff", "longitude": "-121.546371", "county": "Lewis County", "last_stocked_amt": "400", "latitude": "46.658904", "alt": "3846", "last_stocked_date": "Sep 18, 2010", "size": "3.3"},
{"name": "Coyote", "longitude": "-121.497149", "county": "Lewis County", "last_stocked_amt": "318", "latitude": "46.612655", "alt": "5148", "last_stocked_date": "Sep 2, 2012", "size": "3.5"},
{"name": "Die Hard 2", "longitude": "-121.553182", "county": "Lewis County", "last_stocked_amt": "100", "latitude": "46.530155", "alt": "5147", "last_stocked_date": "Sep 2, 2010", "size": "2.2"},
{"name": "Chambers Lake", "longitude": "-121.534791", "county": "Lewis County", "last_stocked_amt": "945", "latitude": "46.466595", "alt": "4442", "last_stocked_date": "Aug 9, 2011", "size": "10.8"},
{"name": "Bishop Ridge Pond", "longitude": "-121.703851", "county": "Lewis County", "last_stocked_amt": "80", "latitude": "46.431430", "alt": "4271", "last_stocked_date": "Sep 12, 2013", "size": "1.8"},
{"name": "Bishop - Upper", "longitude": "-121.711601", "county": "Lewis County", "last_stocked_amt": "60", "latitude": "46.427565", "alt": "4590", "last_stocked_date": "Sep 12, 2013", "size": "1.1"},
{"name": "Bill", "longitude": "-121.388080", "county": "Lewis County", "last_stocked_amt": "210", "latitude": "46.718477", "alt": "5118", "last_stocked_date": "Sep 8, 2012", "size": "2.0"}]